$GPGGA,170402.949,4028.4183,N,08353.5270,W,1,04,2.0,290.6,M,-33.4,M,,0000*65
$GPGSA,A,3,09,16,27,07,,,,,,,,,2.3,2.0,1.0*3C
$GPRMC,170402.949,A,4028.4183,N,08353.5270,W,0.30,162.95,140615,,*15
$GPGGA,170403.949,4028.4191,N,08353.5270,W,1,04,3.2,296.5,M,-33.4,M,,0000*61
$GPGSA,A,3,09,16,27,07,,,,,,,,,9.1,3.2,8.6*39
$GPRMC,170403.949,A,4028.4191,N,08353.5270,W,0.20,152.66,140615,,*19
$GPGGA,170405.000,4028.4191,N,08353.5270,W,1,04,3.2,296.8,M,-33.4,M,,0000*6E
$GPGSA,A,3,09,16,27,07,,,,,,,,,9.1,3.2,8.5*3A
$GPGSV,3,1,12,27,59,077,32,09,56,242,28,07,45,310,38,16,36,052,30*7D
$GPGSV,3,2,12,19,57,149,,23,42,192,,30,15,300,29,26,10,064,25*7F
$GPGSV,3,3,12,11,07,171,,10,06,275,,21,01,032,,04,01,153,*7C
$GPRMC,170405.000,A,4028.4191,N,08353.5270,W,0.24,165.12,140615,,*18
$GPGGA,170406.000,4028.4191,N,08353.5270,W,1,04,3.2,296.7,M,-33.4,M,,0000*62
$GPGSA,A,3,09,16,27,07,,,,,,,,,9.1,3.2,8.5*3A
$GPRMC,170406.000,A,4028.4191,N,08353.5270,W,0.25,155.03,140615,,*19
$GPGGA,170407.000,4028.4191,N,08353.5269,W,1,04,3.2,296.8,M,-33.4,M,,0000*64
$GPGSA,A,3,09,16,27,07,,,,,,,,,9.1,3.2,8.5*3A
$GPRMC,170407.000,A,4028.4191,N,08353.5269,W,0.22,155.21,140615,,*17
$GPGGA,170408.000,4028.4191,N,08353.5269,W,1,04,3.2,297.0,M,-33.4,M,,0000*62
$GPGSA,A,3,09,16,27,07,,,,,,,,,9.1,3.2,8.5*3A
$GPRMC,170408.000,A,4028.4191,N,08353.5269,W,0.24,158.84,140615,,*1C
$GPGGA,170409.000,4028.4191,N,08353.5269,W,1,04,3.2,297.3,M,-33.4,M,,0000*60
$GPGSA,A,3,09,16,27,07,,,,,,,,,9.1,3.2,8.5*3A
$GPRMC,170409.000,A,4028.4191,N,08353.5269,W,0.26,161.31,140615,,*1B
$GPGGA,170410.000,4028.4192,N,08353.5268,W,1,04,3.2,297.6,M,-33.4,M,,0000*6F
$GPGSA,A,3,09,16,27,07,,,,,,,,,9.1,3.2,8.5*3A
$GPGSV,3,1,12,27,59,077,32,09,56,242,29,07,45,310,38,16,36,052,30*7C
$GPGSV,3,2,12,19,57,149,24,23,42,192,,30,15,300,29,26,10,064,25*79
$GPGSV,3,3,12,11,07,171,,10,06,275,23,21,01,032,,04,01,153,*7D
$GPRMC,170410.000,A,4028.4192,N,08353.5268,W,0.22,152.62,140615,,*13
$GPGGA,170411.000,4028.4192,N,08353.5268,W,1,04,3.2,297.9,M,-33.4,M,,0000*61
$GPGSA,A,3,09,16,27,07,,,,,,,,,9.1,3.2,8.5*3A
$GPRMC,170411.000,A,4028.4192,N,08353.5268,W,0.24,164.16,140615,,*12
$GPGGA,170412.000,4028.4193,N,08353.5268,W,1,04,3.2,298.2,M,-33.4,M,,0000*67
$GPGSA,A,3,09,16,27,07,,,,,,,,,9.1,3.2,8.5*3A
$GPRMC,170412.000,A,4028.4193,N,08353.5268,W,0.22,158.27,140615,,*1B
$GPGGA,170413.000,4028.4193,N,08353.5268,W,1,04,3.2,298.4,M,-33.4,M,,0000*60
$GPGSA,A,3,09,16,27,07,,,,,,,,,9.0,3.2,8.5*3B
$GPRMC,170413.000,A,4028.4193,N,08353.5268,W,0.23,156.00,140615,,*10
$GPGGA,170414.000,4028.4194,N,08353.5267,W,1,04,3.1,298.6,M,-33.4,M,,0000*6E
$GPGSA,A,3,09,16,27,07,,,,,,,,,9.0,3.1,8.5*38
$GPRMC,170414.000,A,4028.4194,N,08353.5267,W,0.25,160.22,140615,,*1C
$GPGGA,170415.000,4028.4194,N,08353.5267,W,1,04,3.1,298.7,M,-33.4,M,,0000*6E
$GPGSA,A,3,09,16,27,07,,,,,,,,,9.0,3.1,8.5*38
$GPGSV,3,1,12,27,59,077,32,19,57,149,16,09,56,242,29,07,45,310,38*7B
$GPGSV,3,2,12,23,41,192,,16,36,052,31,30,15,300,29,26,10,064,24*7C
$GPGSV,3,3,12,11,07,171,,10,06,275,23,21,01,032,,04,01,153,*7D
$GPRMC,170415.000,A,4028.4194,N,08353.5267,W,0.22,154.84,140615,,*11
$GPGGA,170416.000,4028.4194,N,08353.5267,W,1,04,3.1,298.9,M,-33.4,M,,0000*63
$GPGSA,A,3,09,16,27,07,,,,,,,,,9.0,3.1,8.5*38
$GPRMC,170416.000,A,4028.4194,N,08353.5267,W,0.24,156.93,140615,,*10
$GPGGA,170417.000,4028.4195,N,08353.5267,W,1,04,3.1,299.1,M,-33.4,M,,0000*6A
$GPGSA,A,3,09,16,27,07,,,,,,,,,9.0,3.1,8.4*39
$GPRMC,170417.000,A,4028.4195,N,08353.5267,W,0.24,158.64,140615,,*16
$GPGGA,170418.000,4028.4195,N,08353.5266,W,1,04,3.1,299.3,M,-33.4,M,,0000*66
$GPGSA,A,3,09,16,27,07,,,,,,,,,9.0,3.1,8.4*39
$GPRMC,170418.000,A,4028.4195,N,08353.5266,W,0.24,160.84,140615,,*1D
$GPGGA,170419.000,4028.4196,N,08353.5266,W,1,04,3.1,299.4,M,-33.4,M,,0000*63
$GPGSA,A,3,09,16,27,07,,,,,,,,,9.0,3.1,8.4*39
$GPRMC,170419.000,A,4028.4196,N,08353.5266,W,0.22,156.40,140615,,*14
$GPGGA,170420.000,4028.4197,N,08353.5266,W,1,05,2.5,300.1,M,-33.4,M,,0000*68
$GPGSA,A,3,09,16,27,07,30,,,,,,,,4.4,2.5,3.5*3C
$GPGSV,3,1,12,27,59,077,32,19,57,149,17,09,56,242,30,07,45,310,38*72
$GPGSV,3,2,12,23,41,192,,16,36,052,31,30,15,300,29,26,10,064,23*7B
$GPGSV,3,3,12,11,07,171,,10,06,275,22,21,01,032,,04,01,153,*7C
$GPRMC,170420.000,A,4028.4197,N,08353.5266,W,0.24,149.12,140615,,*10
$GPGGA,170421.000,4028.4198,N,08353.5265,W,1,05,2.5,300.5,M,-33.4,M,,0000*61
$GPGSA,A,3,09,16,27,07,30,,,,,,,,4.4,2.5,3.5*3C
$GPRMC,170421.000,A,4028.4198,N,08353.5265,W,0.23,157.12,140615,,*15
$GPGGA,170422.000,4028.4198,N,08353.5265,W,1,05,2.5,300.7,M,-33.4,M,,0000*60
$GPGSA,A,3,09,16,27,07,30,,,,,,,,4.4,2.5,3.5*3C
$GPRMC,170422.000,A,4028.4198,N,08353.5265,W,0.17,150.74,140615,,*16
$GPGGA,170423.000,4028.4199,N,08353.5265,W,1,05,2.5,301.0,M,-33.4,M,,0000*66
$GPGSA,A,3,09,16,27,07,30,,,,,,,,4.4,2.5,3.5*3C
$GPRMC,170423.000,A,4028.4199,N,08353.5265,W,0.18,152.91,140615,,*10
$GPGGA,170424.000,4028.4200,N,08353.5265,W,1,05,2.5,301.2,M,-33.4,M,,0000*60
$GPGSA,A,3,09,16,27,07,30,,,,,,,,4.4,2.5,3.5*3C
$GPRMC,170424.000,A,4028.4200,N,08353.5265,W,0.20,153.89,140615,,*17
$GPGGA,170425.000,4028.4200,N,08353.5265,W,1,05,2.5,301.4,M,-33.4,M,,0000*67
$GPGSA,A,3,09,16,27,07,30,,,,,,,,4.4,2.5,3.5*3C
$GPGSV,3,1,12,27,59,077,32,19,57,149,16,09,56,241,30,07,45,310,38*70
$GPGSV,3,2,12,23,41,192,,16,36,052,31,30,15,300,29,26,10,064,23*7B
$GPGSV,3,3,12,11,07,171,,10,06,275,21,21,01,032,,04,01,153,*7F
$GPRMC,170425.000,A,4028.4200,N,08353.5265,W,0.19,146.69,140615,,*16
$GPGGA,170426.000,4028.4201,N,08353.5264,W,1,05,2.5,301.6,M,-33.4,M,,0000*66
$GPGSA,A,3,09,16,27,07,30,,,,,,,,4.4,2.5,3.5*3C
$GPRMC,170426.000,A,4028.4201,N,08353.5264,W,0.18,158.37,140615,,*10
$GPGGA,170427.000,4028.4201,N,08353.5264,W,1,05,2.5,301.8,M,-33.4,M,,0000*69
$GPGSA,A,3,09,16,27,07,30,,,,,,,,4.4,2.5,3.5*3C
$GPRMC,170427.000,A,4028.4201,N,08353.5264,W,0.19,152.29,140615,,*15
$GPGGA,170428.000,4028.4202,N,08353.5264,W,1,05,2.5,301.9,M,-33.4,M,,0000*64
$GPGSA,A,3,09,16,27,07,30,,,,,,,,4.4,2.5,3.5*3C
$GPRMC,170428.000,A,4028.4202,N,08353.5264,W,0.17,151.63,140615,,*1A
$GPGGA,170429.000,4028.4202,N,08353.5264,W,1,05,2.5,302.0,M,-33.4,M,,0000*6F
$GPGSA,A,3,09,16,27,07,30,,,,,,,,4.4,2.5,3.5*3C
$GPRMC,170429.000,A,4028.4202,N,08353.5264,W,0.18,154.03,140615,,*17
$GPGGA,170430.000,4028.4203,N,08353.5264,W,1,05,2.5,302.1,M,-33.4,M,,0000*67
$GPGSA,A,3,09,16,27,07,30,,,,,,,,4.4,2.5,3.5*3C
$GPGSV,3,1,12,27,59,077,32,19,57,149,16,09,56,241,30,07,45,310,38*70
$GPGSV,3,2,12,23,41,192,,16,36,052,31,30,15,300,29,26,10,064,22*7A
$GPGSV,3,3,12,11,07,171,,10,06,275,21,21,01,032,,04,01,153,*7F
$GPRMC,170430.000,A,4028.4203,N,08353.5264,W,0.18,152.64,140615,,*19
$GPGGA,170431.000,4028.4203,N,08353.5264,W,1,05,2.5,302.2,M,-33.4,M,,0000*65
$GPGSA,A,3,09,16,27,07,30,,,,,,,,4.4,2.5,3.5*3C
$GPRMC,170431.000,A,4028.4203,N,08353.5264,W,0.16,150.36,140615,,*13
$GPGGA,170432.000,4028.4204,N,08353.5264,W,1,05,2.5,302.3,M,-33.4,M,,0000*60
$GPGSA,A,3,09,16,27,07,30,,,,,,,,4.4,2.5,3.5*3C
$GPRMC,170432.000,A,4028.4204,N,08353.5264,W,0.19,151.17,140615,,*1A
$GPGGA,170433.000,4028.4204,N,08353.5264,W,1,05,2.5,302.4,M,-33.4,M,,0000*66
$GPGSA,A,3,09,16,27,07,30,,,,,,,,4.4,2.5,3.5*3C
$GPRMC,170433.000,A,4028.4204,N,08353.5264,W,0.14,154.46,140615,,*17
$GPGGA,170434.000,4028.4205,N,08353.5264,W,1,05,2.5,302.5,M,-33.4,M,,0000*61
$GPGSA,A,3,09,16,27,07,30,,,,,,,,4.3,2.5,3.5*3B
$GPRMC,170434.000,A,4028.4205,N,08353.5264,W,0.19,153.99,140615,,*19
$GPGGA,170435.000,4028.4205,N,08353.5264,W,1,05,2.5,302.6,M,-33.4,M,,0000*63
$GPGSA,A,3,09,16,27,07,30,,,,,,,,4.3,2.5,3.5*3B
$GPGSV,3,1,12,27,59,077,32,19,57,149,19,09,56,241,30,07,45,310,38*7F
$GPGSV,3,2,12,23,41,192,20,16,36,052,31,30,15,300,29,26,10,064,21*7B
$GPGSV,3,3,12,11,07,171,,10,06,275,20,21,01,032,,04,01,153,*7E
$GPRMC,170435.000,A,4028.4205,N,08353.5264,W,0.17,151.82,140615,,*1E
$GPGGA,170436.000,4028.4206,N,08353.5263,W,1,05,2.5,302.6,M,-33.4,M,,0000*64
$GPGSA,A,3,09,16,27,07,30,,,,,,,,4.3,2.5,3.5*3B
$GPRMC,170436.000,A,4028.4206,N,08353.5263,W,0.18,153.71,140615,,*18
$GPGGA,170437.000,4028.4206,N,08353.5263,W,1,05,2.5,302.7,M,-33.4,M,,0000*64
$GPGSA,A,3,09,16,27,07,30,,,,,,,,4.3,2.5,3.5*3B
$GPRMC,170437.000,A,4028.4206,N,08353.5263,W,0.18,150.25,140615,,*1B
$GPGGA,170438.000,4028.4206,N,08353.5263,W,1,05,2.5,302.7,M,-33.4,M,,0000*6B
$GPGSA,A,3,09,16,27,07,30,,,,,,,,4.3,2.5,3.5*3B
$GPRMC,170438.000,A,4028.4206,N,08353.5263,W,0.20,157.09,140615,,*16
$GPGGA,170439.000,4028.4207,N,08353.5263,W,1,05,2.5,302.8,M,-33.4,M,,0000*64
$GPGSA,A,3,09,16,27,07,30,,,,,,,,4.3,2.5,3.5*3B
$GPRMC,170439.000,A,4028.4207,N,08353.5263,W,0.15,149.28,140615,,*1C
$GPGGA,170440.000,4028.4207,N,08353.5263,W,1,05,2.5,302.8,M,-33.4,M,,0000*6A
$GPGSA,A,3,09,16,27,07,30,,,,,,,,4.3,2.5,3.5*3B
$GPGSV,3,1,12,27,59,077,33,19,57,149,20,09,56,241,30,07,45,310,38*74
$GPGSV,3,2,12,23,41,192,21,16,36,052,30,30,15,300,29,26,10,064,20*7A
$GPGSV,3,3,12,11,07,171,,10,06,275,20,21,01,032,,04,01,153,*7E
$GPRMC,170440.000,A,4028.4207,N,08353.5263,W,0.19,155.61,140615,,*1E
$GPGGA,170441.000,4028.4207,N,08353.5263,W,1,05,2.5,302.9,M,-33.4,M,,0000*6A
$GPGSA,A,3,09,16,27,07,30,,,,,,,,4.3,2.5,3.5*3B
$GPRMC,170441.000,A,4028.4207,N,08353.5263,W,0.18,158.51,140615,,*10
$GPGGA,170442.000,4028.4208,N,08353.5263,W,1,05,2.5,302.9,M,-33.4,M,,0000*66
$GPGSA,A,3,09,16,27,07,30,,,,,,,,4.3,2.5,3.5*3B
$GPRMC,170442.000,A,4028.4208,N,08353.5263,W,0.17,149.62,140615,,*13
$GPGGA,170443.000,4028.4208,N,08353.5263,W,1,05,2.5,303.0,M,-33.4,M,,0000*6F
$GPGSA,A,3,09,16,27,07,30,,,,,,,,4.3,2.5,3.5*3B
$GPRMC,170443.000,A,4028.4208,N,08353.5263,W,0.17,159.02,140615,,*15
$GPGGA,170444.000,4028.4208,N,08353.5263,W,1,05,2.5,303.0,M,-33.4,M,,0000*68
$GPGSA,A,3,09,16,27,07,30,,,,,,,,4.3,2.5,3.5*3B
$GPRMC,170444.000,A,4028.4208,N,08353.5263,W,0.17,148.07,140615,,*17
$GPGGA,170445.000,4028.4208,N,08353.5263,W,1,05,2.5,303.1,M,-33.4,M,,0000*68
$GPGSA,A,3,09,16,27,07,30,,,,,,,,4.3,2.5,3.5*3B
$GPGSV,3,1,12,27,59,077,33,19,57,149,21,09,56,241,31,07,45,310,38*74
$GPGSV,3,2,12,23,41,192,24,16,36,052,30,30,15,300,30,26,10,064,20*77
$GPGSV,3,3,12,11,07,171,,10,06,275,20,21,01,032,,04,01,153,*7E
$GPRMC,170445.000,A,4028.4208,N,08353.5263,W,0.18,152.76,140615,,*14
$GPGGA,170446.000,4028.4209,N,08353.5263,W,1,05,2.5,303.2,M,-33.4,M,,0000*69
$GPGSA,A,3,09,16,27,07,30,,,,,,,,4.3,2.5,3.5*3B
$GPRMC,170446.000,A,4028.4209,N,08353.5263,W,0.18,162.21,140615,,*17
$GPGGA,170447.000,4028.4209,N,08353.5263,W,1,05,2.5,303.2,M,-33.4,M,,0000*68
$GPGSA,A,3,09,16,27,07,30,,,,,,,,4.3,2.5,3.5*3B
$GPRMC,170447.000,A,4028.4209,N,08353.5263,W,0.17,146.59,140615,,*10
$GPGGA,170448.000,4028.4209,N,08353.5263,W,1,05,2.5,303.3,M,-33.4,M,,0000*66
$GPGSA,A,3,09,16,27,07,30,,,,,,,,4.3,2.5,3.5*3B
$GPRMC,170448.000,A,4028.4209,N,08353.5263,W,0.17,158.23,140615,,*1D
$GPGGA,170449.000,4028.4210,N,08353.5263,W,1,05,2.5,303.3,M,-33.4,M,,0000*6F
$GPGSA,A,3,09,16,27,07,30,,,,,,,,4.3,2.5,3.5*3B
$GPRMC,170449.000,A,4028.4210,N,08353.5263,W,0.16,151.02,140615,,*1F
$GPGGA,170450.000,4028.4210,N,08353.5263,W,1,05,2.5,303.4,M,-33.4,M,,0000*60
$GPGSA,A,3,09,16,27,07,30,,,,,,,,4.3,2.5,3.5*3B
$GPGSV,3,1,12,27,59,077,33,19,57,149,22,09,56,241,31,07,45,310,38*77
$GPGSV,3,2,12,23,41,192,27,16,36,052,31,30,15,300,30,26,10,064,12*74
$GPGSV,3,3,12,11,07,171,,10,06,275,19,21,01,032,,04,01,153,*74
$GPRMC,170450.000,A,4028.4210,N,08353.5263,W,0.16,152.15,140615,,*12
$GPGGA,170451.000,4028.4210,N,08353.5263,W,1,05,2.5,303.4,M,-33.4,M,,0000*61
$GPGSA,A,3,09,16,27,07,30,,,,,,,,4.3,2.5,3.5*3B
$GPRMC,170451.000,A,4028.4210,N,08353.5263,W,0.19,163.21,140615,,*19
$GPGGA,170452.000,4028.4210,N,08353.5263,W,1,05,2.5,303.4,M,-33.4,M,,0000*62
$GPGSA,A,3,09,16,27,07,30,,,,,,,,4.3,2.5,3.5*3B
$GPRMC,170452.000,A,4028.4210,N,08353.5263,W,0.15,150.06,140615,,*13
$GPGGA,170453.000,4028.4211,N,08353.5263,W,1,05,2.5,303.5,M,-33.4,M,,0000*63
$GPGSA,A,3,09,16,27,07,30,,,,,,,,4.3,2.5,3.5*3B
$GPRMC,170453.000,A,4028.4211,N,08353.5263,W,0.18,152.22,140615,,*1A
$GPGGA,170454.000,4028.4211,N,08353.5263,W,1,05,2.5,303.5,M,-33.4,M,,0000*64
$GPGSA,A,3,09,16,27,07,30,,,,,,,,4.3,2.5,3.5*3B
$GPRMC,170454.000,A,4028.4211,N,08353.5263,W,0.14,150.36,140615,,*16
$GPGGA,170455.000,4028.4211,N,08353.5263,W,1,05,2.5,303.5,M,-33.4,M,,0000*65
$GPGSA,A,3,09,16,27,07,30,,,,,,,,4.3,2.5,3.5*3B
$GPGSV,3,1,12,27,59,077,33,19,57,149,22,09,56,241,31,07,45,310,38*77
$GPGSV,3,2,12,23,41,192,27,16,36,052,30,30,15,300,30,26,10,064,*76
$GPGSV,3,3,12,11,07,171,,10,06,275,18,21,01,032,,04,01,153,*75
$GPRMC,170455.000,A,4028.4211,N,08353.5263,W,0.17,156.88,140615,,*17
$GPGGA,170456.000,4028.4211,N,08353.5263,W,1,05,2.5,303.5,M,-33.4,M,,0000*66
$GPGSA,A,3,09,16,27,07,30,,,,,,,,4.3,2.5,3.5*3B
$GPRMC,170456.000,A,4028.4211,N,08353.5263,W,0.17,153.65,140615,,*12
$GPGGA,170457.000,4028.4211,N,08353.5263,W,1,05,2.5,303.5,M,-33.4,M,,0000*67
$GPGSA,A,3,09,16,27,07,30,,,,,,,,4.3,2.5,3.5*3B
$GPRMC,170457.000,A,4028.4211,N,08353.5263,W,0.19,153.60,140615,,*18
$GPGGA,170458.000,4028.4211,N,08353.5263,W,1,05,2.5,303.5,M,-33.4,M,,0000*68
$GPGSA,A,3,09,16,27,07,30,,,,,,,,4.3,2.5,3.5*3B
$GPRMC,170458.000,A,4028.4211,N,08353.5263,W,0.16,154.69,140615,,*16
$GPGGA,170459.000,4028.4211,N,08353.5262,W,1,05,2.5,303.5,M,-33.4,M,,0000*68
$GPGSA,A,3,09,16,27,07,30,,,,,,,,4.3,2.5,3.5*3B
$GPRMC,170459.000,A,4028.4211,N,08353.5262,W,0.16,151.69,140615,,*13
$GPGGA,170500.000,4028.4212,N,08353.5262,W,1,05,2.5,303.5,M,-33.4,M,,0000*66
$GPGSA,A,3,09,16,27,07,30,,,,,,,,4.3,2.5,3.5*3B
$GPGSV,3,1,12,27,59,077,34,19,57,149,21,09,56,241,31,07,45,310,38*73
$GPGSV,3,2,12,23,41,192,27,16,36,052,30,30,15,300,31,26,10,064,20*75
$GPGSV,3,3,12,11,07,171,,10,06,275,18,21,01,032,,04,01,153,*75
$GPRMC,170500.000,A,4028.4212,N,08353.5262,W,0.16,152.36,140615,,*14
$GPGGA,170501.000,4028.4212,N,08353.5262,W,1,05,2.5,303.5,M,-33.4,M,,0000*67
$GPGSA,A,3,09,16,27,07,30,,,,,,,,4.3,2.5,3.5*3B
$GPRMC,170501.000,A,4028.4212,N,08353.5262,W,0.19,158.85,140615,,*18
$GPGGA,170502.000,4028.4212,N,08353.5262,W,1,05,2.5,303.5,M,-33.4,M,,0000*64
$GPGSA,A,3,09,16,27,07,30,,,,,,,,4.3,2.5,3.5*3B
$GPRMC,170502.000,A,4028.4212,N,08353.5262,W,0.16,151.23,140615,,*11
$GPGGA,170503.000,4028.4212,N,08353.5262,W,1,05,2.5,303.5,M,-33.4,M,,0000*65
$GPGSA,A,3,09,16,27,07,30,,,,,,,,4.3,2.5,3.5*3B
$GPRMC,170503.000,A,4028.4212,N,08353.5262,W,0.19,159.76,140615,,*17
$GPGGA,170504.000,4028.4212,N,08353.5262,W,1,05,2.5,303.5,M,-33.4,M,,0000*62
$GPGSA,A,3,09,16,27,07,30,,,,,,,,4.3,2.5,3.5*3B
$GPRMC,170504.000,A,4028.4212,N,08353.5262,W,0.17,152.40,140615,,*10
$GPGGA,170505.000,4028.4212,N,08353.5262,W,1,05,2.5,303.4,M,-33.4,M,,0000*62
$GPGSA,A,3,09,16,27,07,30,,,,,,,,4.3,2.5,3.5*3B
$GPGSV,3,1,12,27,59,077,34,19,57,149,21,09,56,241,31,07,45,310,37*7C
$GPGSV,3,2,12,23,41,192,28,16,36,052,30,30,15,300,31,26,10,064,20*7A
$GPGSV,3,3,12,11,07,171,,10,06,275,18,21,01,032,,04,01,153,*75
$GPRMC,170505.000,A,4028.4212,N,08353.5262,W,0.17,157.28,140615,,*1A
$GPGGA,170506.000,4028.4212,N,08353.5262,W,1,05,2.5,303.4,M,-33.4,M,,0000*61
$GPGSA,A,3,09,16,27,07,30,,,,,,,,4.3,2.5,3.5*3B
$GPRMC,170506.000,A,4028.4212,N,08353.5262,W,0.18,149.35,140615,,*15
$GPGGA,170507.000,4028.4212,N,08353.5262,W,1,05,2.5,303.4,M,-33.4,M,,0000*60
$GPGSA,A,3,09,16,27,07,30,,,,,,,,4.3,2.5,3.5*3B
$GPRMC,170507.000,A,4028.4212,N,08353.5262,W,0.18,154.06,140615,,*18
$GPGGA,170508.000,4028.4213,N,08353.5262,W,1,05,2.5,303.4,M,-33.4,M,,0000*6E
$GPGSA,A,3,09,16,27,07,30,,,,,,,,4.3,2.5,3.5*3B
$GPRMC,170508.000,A,4028.4213,N,08353.5262,W,0.19,158.63,140615,,*18
$GPGGA,170509.000,4028.4213,N,08353.5262,W,1,05,2.5,303.4,M,-33.4,M,,0000*6F
$GPGSA,A,3,09,16,27,07,30,,,,,,,,4.3,2.5,3.5*3B
$GPRMC,170509.000,A,4028.4213,N,08353.5262,W,0.20,155.87,140615,,*14
$GPGGA,170510.000,4028.4213,N,08353.5262,W,1,05,2.5,303.4,M,-33.4,M,,0000*67
$GPGSA,A,3,09,16,27,07,30,,,,,,,,4.3,2.5,3.5*3B
$GPGSV,3,1,12,27,59,077,34,19,57,149,21,09,56,241,31,07,45,310,37*7C
$GPGSV,3,2,12,23,41,192,28,16,36,052,30,30,15,300,31,26,10,064,20*7A
$GPGSV,3,3,12,11,07,171,,10,06,275,18,21,01,032,,04,01,153,*75
$GPRMC,170510.000,A,4028.4213,N,08353.5262,W,0.18,153.45,140615,,*1F
$GPGGA,170511.000,4028.4213,N,08353.5262,W,1,05,2.5,303.3,M,-33.4,M,,0000*61
$GPGSA,A,3,09,16,27,07,30,,,,,,,,4.3,2.5,3.5*3B
$GPRMC,170511.000,A,4028.4213,N,08353.5262,W,0.18,154.53,140615,,*1E
$GPGGA,170512.000,4028.4213,N,08353.5262,W,1,05,2.5,303.3,M,-33.4,M,,0000*62
$GPGSA,A,3,09,16,27,07,30,,,,,,,,4.3,2.5,3.5*3B
$GPRMC,170512.000,A,4028.4213,N,08353.5262,W,0.20,159.61,140615,,*1A
$GPGGA,170513.000,4028.4213,N,08353.5262,W,1,05,2.5,303.3,M,-33.4,M,,0000*63
$GPGSA,A,3,09,16,27,07,30,,,,,,,,4.3,2.5,3.5*3B
$GPRMC,170513.000,A,4028.4213,N,08353.5262,W,0.19,148.03,140615,,*15
$GPGGA,170514.000,4028.4213,N,08353.5262,W,1,05,2.5,303.3,M,-33.4,M,,0000*64
$GPGSA,A,3,09,16,27,07,30,,,,,,,,4.3,2.5,3.5*3B
$GPRMC,170514.000,A,4028.4213,N,08353.5262,W,0.22,161.98,140615,,*13
$GPGGA,170515.000,4028.4213,N,08353.5262,W,1,05,2.5,303.3,M,-33.4,M,,0000*65
$GPGSA,A,3,09,16,27,07,30,,,,,,,,4.3,2.5,3.5*3B
$GPGSV,3,1,12,27,58,076,35,19,58,148,21,09,56,241,32,07,46,311,37*72
$GPGSV,3,2,12,23,41,192,28,16,36,053,30,30,16,300,31,26,10,064,21*79
$GPGSV,3,3,12,11,07,171,,10,06,275,19,04,01,153,,21,01,032,*74
$GPRMC,170515.000,A,4028.4213,N,08353.5262,W,0.18,157.33,140615,,*1F
$GPGGA,170516.000,4028.4214,N,08353.5262,W,1,05,2.5,303.3,M,-33.4,M,,0000*61
$GPGSA,A,3,09,16,27,07,30,,,,,,,,4.3,2.5,3.5*3B
$GPRMC,170516.000,A,4028.4214,N,08353.5262,W,0.19,153.41,140615,,*1B
$GPGGA,170517.000,4028.4214,N,08353.5261,W,1,05,2.5,303.2,M,-33.4,M,,0000*62
$GPGSA,A,3,09,16,27,07,30,,,,,,,,4.3,2.5,3.5*3B
$GPRMC,170517.000,A,4028.4214,N,08353.5261,W,0.21,154.11,140615,,*10
$GPGGA,170518.000,4028.4214,N,08353.5261,W,1,05,2.5,303.2,M,-33.4,M,,0000*6D
$GPGSA,A,3,09,16,27,07,30,,,,,,,,4.3,2.5,3.5*3B
$GPRMC,170518.000,A,4028.4214,N,08353.5261,W,0.19,155.77,140615,,*15
$GPGGA,170519.000,4028.4214,N,08353.5261,W,1,05,2.5,303.2,M,-33.4,M,,0000*6C
$GPGSA,A,3,09,16,27,07,30,,,,,,,,4.3,2.5,3.5*3B
$GPRMC,170519.000,A,4028.4214,N,08353.5261,W,0.20,157.74,140615,,*1F
$GPGGA,170520.000,4028.4214,N,08353.5261,W,1,05,2.5,303.2,M,-33.4,M,,0000*66
$GPGSA,A,3,09,16,27,07,30,,,,,,,,4.3,2.5,3.5*3B
$GPGSV,3,1,12,27,58,076,35,19,58,148,21,09,56,241,32,07,46,311,37*72
$GPGSV,3,2,12,23,41,192,28,16,36,053,30,30,16,300,32,26,10,064,22*79
$GPGSV,3,3,12,11,07,171,,10,06,275,18,04,01,153,,21,01,032,*75
$GPRMC,170520.000,A,4028.4214,N,08353.5261,W,0.19,146.85,140615,,*11
$GPGGA,170521.000,4028.4214,N,08353.5261,W,1,05,2.5,303.1,M,-33.4,M,,0000*64
$GPGSA,A,3,09,16,27,07,30,,,,,,,,4.3,2.5,3.5*3B
$GPRMC,170521.000,A,4028.4214,N,08353.5261,W,0.20,158.56,140615,,*1B
$GPGGA,170522.000,4028.4214,N,08353.5261,W,1,05,2.5,303.1,M,-33.4,M,,0000*67
$GPGSA,A,3,09,16,27,07,30,,,,,,,,4.3,2.5,3.5*3B
$GPRMC,170522.000,A,4028.4214,N,08353.5261,W,0.20,155.30,140615,,*15
$GPGGA,170523.000,4028.4214,N,08353.5261,W,1,05,2.5,303.1,M,-33.4,M,,0000*66
$GPGSA,A,3,09,16,27,07,30,,,,,,,,4.3,2.5,3.5*3B
$GPRMC,170523.000,A,4028.4214,N,08353.5261,W,0.19,150.48,140615,,*14
$GPGGA,170524.000,4028.4214,N,08353.5261,W,1,05,2.5,303.1,M,-33.4,M,,0000*61
$GPGSA,A,3,09,16,27,07,30,,,,,,,,4.3,2.5,3.5*3B
$GPRMC,170524.000,A,4028.4214,N,08353.5261,W,0.20,156.31,140615,,*11
$GPGGA,170525.000,4028.4215,N,08353.5261,W,1,05,2.5,303.1,M,-33.4,M,,0000*61
$GPGSA,A,3,09,16,27,07,30,,,,,,,,4.3,2.5,3.5*3B
$GPGSV,3,1,12,27,58,076,35,19,58,148,21,09,56,241,32,07,46,311,37*72
$GPGSV,3,2,12,23,41,192,27,16,36,053,30,30,16,300,32,26,10,064,23*77
$GPGSV,3,3,12,11,07,171,,10,06,275,16,04,01,153,,21,01,032,*7B
$GPRMC,170525.000,A,4028.4215,N,08353.5261,W,0.20,155.28,140615,,*1A
$GPGGA,170526.000,4028.4239,N,08353.5265,W,1,06,1.3,308.6,M,-33.4,M,,0000*62
$GPGSA,A,3,09,16,27,07,30,23,,,,,,,2.9,1.3,2.6*31
$GPRMC,170526.000,A,4028.4239,N,08353.5265,W,0.20,6.63,140615,,*1B
$GPGGA,170527.000,4028.4252,N,08353.5267,W,1,06,1.3,311.5,M,-33.4,M,,0000*67
$GPGSA,A,3,09,16,27,07,30,23,,,,,,,2.9,1.3,2.6*31
$GPRMC,170527.000,A,4028.4252,N,08353.5267,W,0.11,6.89,140615,,*13
$GPGGA,170528.000,4028.4259,N,08353.5268,W,1,06,1.3,313.5,M,-33.4,M,,0000*6E
$GPGSA,A,3,09,16,27,07,30,23,,,,,,,2.9,1.3,2.6*31
$GPRMC,170528.000,A,4028.4259,N,08353.5268,W,0.15,353.12,140615,,*1D
$GPGGA,170529.000,4028.4265,N,08353.5269,W,1,06,1.3,315.0,M,-33.4,M,,0000*62
$GPGSA,A,3,09,16,27,07,30,23,,,,,,,2.9,1.3,2.6*31
$GPRMC,170529.000,A,4028.4265,N,08353.5269,W,0.10,346.95,140615,,*1C
$GPGGA,170530.000,4028.4269,N,08353.5270,W,1,06,1.3,316.1,M,-33.4,M,,0000*6C
$GPGSA,A,3,09,16,27,07,30,23,,,,,,,2.9,1.3,2.6*31
$GPGSV,3,1,12,27,58,076,35,19,58,148,21,09,56,241,32,07,46,311,37*72
$GPGSV,3,2,12,23,41,192,27,16,36,053,30,30,16,300,32,26,10,064,24*70
$GPGSV,3,3,12,11,07,171,,10,06,274,14,04,01,153,,21,01,032,*78
$GPRMC,170530.000,A,4028.4269,N,08353.5270,W,0.10,354.51,140615,,*1B
$GPGGA,170531.000,4028.4272,N,08353.5270,W,1,06,1.3,317.0,M,-33.4,M,,0000*67
$GPGSA,A,3,09,16,27,07,30,23,,,,,,,2.9,1.3,2.6*31
$GPRMC,170531.000,A,4028.4272,N,08353.5270,W,0.08,353.58,140615,,*17
$GPGGA,170532.000,4028.4274,N,08353.5271,W,1,06,1.3,317.8,M,-33.4,M,,0000*6B
$GPGSA,A,3,09,16,27,07,30,23,,,,,,,2.9,1.3,2.6*31
$GPRMC,170532.000,A,4028.4274,N,08353.5271,W,0.07,344.94,140615,,*1A
$GPGGA,170533.000,4028.4276,N,08353.5271,W,1,06,1.3,318.5,M,-33.4,M,,0000*6A
$GPGSA,A,3,09,16,27,07,30,23,,,,,,,2.9,1.3,2.6*31
$GPRMC,170533.000,A,4028.4276,N,08353.5271,W,0.06,332.84,140615,,*18
$GPGGA,170534.000,4028.4278,N,08353.5271,W,1,06,1.3,319.1,M,-33.4,M,,0000*66
$GPGSA,A,3,09,16,27,07,30,23,,,,,,,2.9,1.3,2.6*31
$GPRMC,170534.000,A,4028.4278,N,08353.5271,W,0.03,349.63,140615,,*11
$GPGGA,170535.000,4028.4280,N,08353.5272,W,1,06,1.3,319.6,M,-33.4,M,,0000*64
$GPGSA,A,3,09,16,27,07,30,23,,,,,,,2.9,1.3,2.6*31
$GPGSV,3,1,12,27,58,076,35,19,58,148,,09,56,241,33,07,46,311,37*70
$GPGSV,3,2,12,23,41,192,27,16,36,053,30,30,16,300,33,26,10,064,25*70
$GPGSV,3,3,12,11,07,171,,10,06,274,,04,01,153,,21,01,032,*7D
$GPRMC,170535.000,A,4028.4280,N,08353.5272,W,0.04,344.21,140615,,*18
$GPGGA,170536.000,4028.4281,N,08353.5272,W,1,06,1.3,320.0,M,-33.4,M,,0000*6A
$GPGSA,A,3,09,16,27,07,30,23,,,,,,,2.9,1.3,2.6*31
$GPRMC,170536.000,A,4028.4281,N,08353.5272,W,0.01,53.79,140615,,*27
$GPGGA,170537.000,4028.4282,N,08353.5272,W,1,06,1.3,320.4,M,-33.4,M,,0000*6C
$GPGSA,A,3,09,16,27,07,30,23,,,,,,,2.9,1.3,2.6*31
$GPRMC,170537.000,A,4028.4282,N,08353.5272,W,0.01,5.76,140615,,*19
$GPGGA,170538.000,4028.4283,N,08353.5272,W,1,06,1.3,320.7,M,-33.4,M,,0000*61
$GPGSA,A,3,09,16,27,07,30,23,,,,,,,2.9,1.3,2.6*31
$GPRMC,170538.000,A,4028.4283,N,08353.5272,W,0.02,81.13,140615,,*2B
$GPGGA,170539.000,4028.4284,N,08353.5272,W,1,06,1.3,321.0,M,-33.4,M,,0000*61
$GPGSA,A,3,09,16,27,07,30,23,,,,,,,2.9,1.3,2.6*31
$GPRMC,170539.000,A,4028.4284,N,08353.5272,W,0.01,143.25,140615,,*14
$GPGGA,170540.000,4028.4285,N,08353.5272,W,1,06,1.3,321.3,M,-33.4,M,,0000*6D
$GPGSA,A,3,09,16,27,07,30,23,,,,,,,2.9,1.3,2.6*31
$GPGSV,3,1,12,27,58,076,35,19,58,148,,09,56,240,33,07,46,311,37*71
$GPGSV,3,2,12,23,41,192,27,16,36,053,30,30,16,300,33,26,10,064,25*70
$GPGSV,3,3,12,11,07,170,,10,06,274,,04,01,153,,21,01,032,*7C
$GPRMC,170540.000,A,4028.4285,N,08353.5272,W,0.03,127.72,140615,,*19
$GPGGA,170541.000,4028.4286,N,08353.5272,W,1,06,1.3,321.5,M,-33.4,M,,0000*69
$GPGSA,A,3,09,16,27,07,30,23,,,,,,,2.9,1.3,2.6*31
$GPRMC,170541.000,A,4028.4286,N,08353.5272,W,0.04,145.03,140615,,*1E
$GPGGA,170542.000,4028.4286,N,08353.5272,W,1,06,1.3,321.8,M,-33.4,M,,0000*67
$GPGSA,A,3,09,16,27,07,30,23,,,,,,,2.9,1.3,2.6*31
$GPRMC,170542.000,A,4028.4286,N,08353.5272,W,0.07,136.87,140615,,*16
$GPGGA,170543.000,4028.4287,N,08353.5272,W,1,06,1.3,322.0,M,-33.4,M,,0000*6C
$GPGSA,A,3,09,16,27,07,30,23,,,,,,,2.9,1.3,2.6*31
$GPRMC,170543.000,A,4028.4287,N,08353.5272,W,0.05,152.58,140615,,*14
$GPGGA,170544.000,4028.4287,N,08353.5272,W,1,06,1.3,322.2,M,-33.4,M,,0000*69
$GPGSA,A,3,09,16,27,07,30,23,,,,,,,2.9,1.3,2.6*31
$GPRMC,170544.000,A,4028.4287,N,08353.5272,W,0.05,144.82,140615,,*13
$GPGGA,170545.000,4028.4288,N,08353.5272,W,1,06,1.3,322.3,M,-33.4,M,,0000*66
$GPGSA,A,3,09,16,27,07,30,23,,,,,,,2.9,1.3,2.6*31
$GPGSV,3,1,12,27,58,076,35,19,58,148,,09,56,240,34,07,46,311,36*77
$GPGSV,3,2,12,23,41,192,27,16,36,053,30,30,16,300,33,26,10,064,26*73
$GPGSV,3,3,12,11,07,170,,10,06,274,,04,01,153,,21,01,032,*7C
$GPRMC,170545.000,A,4028.4288,N,08353.5272,W,0.07,140.23,140615,,*10
$GPGGA,170546.000,4028.4288,N,08353.5272,W,1,06,1.3,322.5,M,-33.4,M,,0000*63
$GPGSA,A,3,09,16,27,07,30,23,,,,,,,2.9,1.3,2.6*31
$GPRMC,170546.000,A,4028.4288,N,08353.5272,W,0.06,155.20,140615,,*15
$GPGGA,170547.000,4028.4289,N,08353.5272,W,1,06,1.3,322.6,M,-33.4,M,,0000*60
$GPGSA,A,3,09,16,27,07,30,23,,,,,,,2.9,1.3,2.6*31
$GPRMC,170547.000,A,4028.4289,N,08353.5272,W,0.09,139.38,140615,,*19
$GPGGA,170548.000,4028.4289,N,08353.5272,W,1,06,1.3,322.7,M,-33.4,M,,0000*6E
$GPGSA,A,3,09,16,27,07,30,23,,,,,,,2.9,1.3,2.6*31
$GPRMC,170548.000,A,4028.4289,N,08353.5272,W,0.06,161.75,140615,,*1D
$GPGGA,170549.000,4028.4289,N,08353.5272,W,1,06,1.3,322.9,M,-33.4,M,,0000*61
$GPGSA,A,3,09,16,27,07,30,23,,,,,,,2.9,1.3,2.6*31
$GPRMC,170549.000,A,4028.4289,N,08353.5272,W,0.10,145.52,140615,,*18
$GPGGA,170550.000,4028.4290,N,08353.5272,W,1,06,1.3,323.0,M,-33.4,M,,0000*69
$GPGSA,A,3,09,16,27,07,30,23,,,,,,,2.9,1.3,2.6*31
$GPGSV,3,1,12,27,58,076,35,19,58,148,,09,56,240,34,07,46,311,36*77
$GPGSV,3,2,12,23,41,192,27,16,36,053,31,30,16,300,33,26,10,064,27*73
$GPGSV,3,3,12,11,07,170,,10,06,274,,04,01,153,,21,01,032,*7C
$GPRMC,170550.000,A,4028.4290,N,08353.5272,W,0.09,153.59,140615,,*1C
$GPGGA,170551.000,4028.4290,N,08353.5272,W,1,06,1.3,323.1,M,-33.4,M,,0000*69
$GPGSA,A,3,09,16,27,07,30,23,,,,,,,2.9,1.3,2.6*31
$GPRMC,170551.000,A,4028.4290,N,08353.5272,W,0.09,146.02,140615,,*17
$GPGGA,170552.000,4028.4290,N,08353.5272,W,1,06,1.3,323.2,M,-33.4,M,,0000*69
$GPGSA,A,3,09,16,27,07,30,23,,,,,,,2.9,1.3,2.6*31
$GPRMC,170552.000,A,4028.4290,N,08353.5272,W,0.11,146.07,140615,,*18
$GPGGA,170553.000,4028.4290,N,08353.5272,W,1,06,1.3,323.3,M,-33.4,M,,0000*69
$GPGSA,A,3,09,16,27,07,30,23,,,,,,,2.9,1.3,2.6*31
$GPRMC,170553.000,A,4028.4290,N,08353.5272,W,0.07,158.40,140615,,*12
$GPGGA,170554.000,4028.4291,N,08353.5272,W,1,06,1.3,323.3,M,-33.4,M,,0000*6F
$GPGSA,A,3,09,16,27,07,30,23,,,,,,,2.9,1.3,2.6*31
$GPRMC,170554.000,A,4028.4291,N,08353.5272,W,0.11,146.92,140615,,*13
$GPGGA,170555.000,4028.4291,N,08353.5272,W,1,06,1.3,323.4,M,-33.4,M,,0000*69
$GPGSA,A,3,09,16,27,07,30,23,,,,,,,2.9,1.3,2.6*31
$GPGSV,3,1,12,27,58,076,35,19,58,148,,09,56,240,34,07,46,311,36*77
$GPGSV,3,2,12,23,41,192,27,16,36,053,31,30,16,300,33,26,10,064,27*73
$GPGSV,3,3,12,11,07,170,,10,06,274,16,04,01,153,,21,01,032,*7B
$GPRMC,170555.000,A,4028.4291,N,08353.5272,W,0.10,142.86,140615,,*12
$GPGGA,170556.000,4028.4291,N,08353.5272,W,1,06,1.3,323.4,M,-33.4,M,,0000*6A
$GPGSA,A,3,09,16,27,07,30,23,,,,,,,2.9,1.3,2.6*31
$GPRMC,170556.000,A,4028.4291,N,08353.5272,W,0.12,151.40,140615,,*1B
$GPGGA,170557.000,4028.4291,N,08353.5272,W,1,06,1.3,323.4,M,-33.4,M,,0000*6B
$GPGSA,A,3,09,16,27,07,30,23,,,,,,,2.9,1.3,2.6*31
$GPRMC,170557.000,A,4028.4291,N,08353.5272,W,0.09,139.62,140615,,*1E
$GPGGA,170558.000,4028.4289,N,08353.5272,W,1,06,1.3,323.0,M,-33.4,M,,0000*69
$GPGSA,A,3,09,16,27,07,30,23,,,,,,,2.9,1.3,2.6*31
$GPRMC,170558.000,A,4028.4289,N,08353.5272,W,0.20,161.77,140615,,*1A
$GPGGA,170559.000,4028.4287,N,08353.5271,W,1,06,1.3,322.4,M,-33.4,M,,0000*60
$GPGSA,A,3,09,16,27,07,30,23,,,,,,,2.9,1.3,2.6*31
$GPRMC,170559.000,A,4028.4287,N,08353.5271,W,0.20,160.15,140615,,*13
$GPGGA,170600.000,4028.4285,N,08353.5271,W,1,06,1.3,322.0,M,-33.4,M,,0000*69
$GPGSA,A,3,09,16,27,07,30,23,,,,,,,2.9,1.3,2.6*31
$GPGSV,3,1,12,27,58,076,36,19,58,148,21,09,56,240,34,07,46,311,36*77
$GPGSV,3,2,12,23,41,192,26,16,36,053,31,30,16,300,33,26,10,064,28*7D
$GPGSV,3,3,12,11,07,170,,10,06,274,14,04,01,153,,21,01,032,*79
$GPRMC,170600.000,A,4028.4285,N,08353.5271,W,0.21,155.94,140615,,*10
$GPGGA,170601.000,4028.4282,N,08353.5271,W,1,06,1.3,321.3,M,-33.4,M,,0000*6F
$GPGSA,A,3,09,16,27,07,30,23,,,,,,,2.9,1.3,2.6*31
$GPRMC,170601.000,A,4028.4282,N,08353.5271,W,0.20,150.77,140615,,*1F
$GPGGA,170602.000,4028.4280,N,08353.5270,W,1,06,1.3,320.6,M,-33.4,M,,0000*6B
$GPGSA,A,3,09,16,27,07,30,23,,,,,,,2.9,1.3,2.6*31
$GPRMC,170602.000,A,4028.4280,N,08353.5270,W,0.24,152.14,140615,,*1C
$GPGGA,170603.000,4028.4277,N,08353.5269,W,1,06,1.3,319.8,M,-33.4,M,,0000*6E
$GPGSA,A,3,09,16,27,07,30,23,,,,,,,2.9,1.3,2.6*31
$GPRMC,170603.000,A,4028.4277,N,08353.5269,W,0.28,158.09,140615,,*17
$GPGGA,170604.000,4028.4275,N,08353.5269,W,1,06,1.3,319.2,M,-33.4,M,,0000*61
$GPGSA,A,3,09,16,27,07,30,23,,,,,,,2.9,1.3,2.6*31
$GPRMC,170604.000,A,4028.4275,N,08353.5269,W,0.28,151.86,140615,,*1C
$GPGGA,170605.000,4028.4273,N,08353.5269,W,1,06,1.3,318.7,M,-33.4,M,,0000*62
$GPGSA,A,3,09,16,27,07,30,23,,,,,,,2.9,1.3,2.6*31
$GPGSV,3,1,12,27,58,076,36,19,58,148,20,09,56,240,34,07,46,311,36*76
$GPGSV,3,2,12,23,41,192,25,16,36,053,31,30,16,300,33,26,10,064,28*7E
$GPGSV,3,3,12,11,07,170,,10,06,274,13,04,01,153,,21,01,032,*7E
$GPRMC,170605.000,A,4028.4273,N,08353.5269,W,0.27,152.62,140615,,*1D
$GPGGA,170606.000,4028.4269,N,08353.5268,W,1,06,1.3,317.7,M,-33.4,M,,0000*64
$GPGSA,A,3,09,16,27,07,30,23,,,,,,,2.9,1.3,2.6*31
$GPRMC,170606.000,A,4028.4269,N,08353.5268,W,0.40,162.12,140615,,*11
$GPGGA,170607.000,4028.4268,N,08353.5268,W,1,06,1.3,317.3,M,-33.4,M,,0000*60
$GPGSA,A,3,09,16,27,07,30,23,,,,,,,2.9,1.3,2.6*31
$GPRMC,170607.000,A,4028.4268,N,08353.5268,W,0.66,167.72,140615,,*16
$GPGGA,170608.000,4028.4268,N,08353.5267,W,1,06,1.3,317.1,M,-33.4,M,,0000*62
$GPGSA,A,3,09,16,27,07,30,23,,,,,,,2.9,1.3,2.6*31
$GPRMC,170608.000,A,4028.4268,N,08353.5267,W,0.61,168.65,140615,,*18
$GPGGA,170609.000,4028.4264,N,08353.5267,W,1,06,1.3,316.3,M,-33.4,M,,0000*6C
$GPGSA,A,3,09,16,27,07,30,23,,,,,,,2.9,1.3,2.6*31
$GPRMC,170609.000,A,4028.4264,N,08353.5267,W,0.62,167.04,140615,,*1E
$GPGGA,170610.000,4028.4262,N,08353.5266,W,1,06,1.3,315.6,M,-33.4,M,,0000*65
$GPGSA,A,3,09,16,27,07,30,23,,,,,,,2.9,1.3,2.6*31
$GPGSV,3,1,12,27,58,075,36,19,58,148,19,09,56,240,34,07,46,311,36*7F
$GPGSV,3,2,12,23,41,192,22,16,35,053,32,30,16,300,32,26,10,065,28*79
$GPGSV,3,3,12,11,07,170,,10,05,274,13,04,01,153,,21,00,032,*7C
$GPRMC,170610.000,A,4028.4262,N,08353.5266,W,0.45,160.38,140615,,*1C
$GPGGA,170611.000,4028.4265,N,08353.5267,W,1,06,1.3,316.0,M,-33.4,M,,0000*67
$GPGSA,A,3,09,16,27,07,30,23,,,,,,,2.9,1.3,2.6*31
$GPRMC,170611.000,A,4028.4265,N,08353.5267,W,0.27,143.47,140615,,*16
$GPGGA,170612.000,4028.4262,N,08353.5266,W,1,06,1.3,315.3,M,-33.4,M,,0000*62
$GPGSA,A,3,09,16,27,07,30,23,,,,,,,2.9,1.3,2.6*31
$GPRMC,170612.000,A,4028.4262,N,08353.5266,W,0.62,167.41,140615,,*12
$GPGGA,170613.000,4028.4259,N,08353.5266,W,1,06,1.3,314.4,M,-33.4,M,,0000*6D
$GPGSA,A,3,09,16,27,07,30,23,,,,,,,2.9,1.3,2.6*31
$GPRMC,170613.000,A,4028.4259,N,08353.5266,W,0.45,162.13,140615,,*1C
$GPGGA,170614.000,4028.4254,N,08353.5265,W,1,06,1.3,313.3,M,-33.4,M,,0000*64
$GPGSA,A,3,09,16,27,07,30,23,,,,,,,2.9,1.3,2.6*31
$GPRMC,170614.000,A,4028.4254,N,08353.5265,W,0.78,168.85,140615,,*1E
$GPGGA,170615.000,4028.4254,N,08353.5265,W,1,06,1.3,313.1,M,-33.4,M,,0000*67
$GPGSA,A,3,09,16,27,07,30,23,,,,,,,2.9,1.3,2.6*31
$GPGSV,3,1,12,27,58,075,36,19,58,148,19,09,56,240,34,07,46,311,36*7F
$GPGSV,3,2,12,23,40,192,22,16,35,053,32,30,16,300,32,26,10,065,28*78
$GPGSV,3,3,12,11,07,170,,10,05,274,14,04,01,153,,21,00,032,*7B
$GPRMC,170615.000,A,4028.4254,N,08353.5265,W,0.28,140.51,140615,,*19
$GPGGA,170616.000,4028.4255,N,08353.5265,W,1,06,1.3,313.0,M,-33.4,M,,0000*64
$GPGSA,A,3,09,16,27,07,30,23,,,,,,,2.9,1.3,2.6*31
$GPRMC,170616.000,A,4028.4255,N,08353.5265,W,0.17,83.75,140615,,*2F
$GPGGA,170617.000,4028.4256,N,08353.5264,W,1,06,1.3,312.9,M,-33.4,M,,0000*6F
$GPGSA,A,3,09,16,27,07,30,23,,,,,,,2.9,1.3,2.6*31
$GPRMC,170617.000,A,4028.4256,N,08353.5264,W,0.17,71.53,140615,,*25
$GPGGA,170618.000,4028.4255,N,08353.5264,W,1,06,1.3,312.3,M,-33.4,M,,0000*69
$GPGSA,A,3,09,16,27,07,30,23,,,,,,,2.9,1.3,2.6*31
$GPRMC,170618.000,A,4028.4255,N,08353.5264,W,0.32,154.31,140615,,*1C
$GPGGA,170619.000,4028.4250,N,08353.5264,W,1,06,1.3,311.3,M,-33.4,M,,0000*6E
$GPGSA,A,3,09,16,27,07,30,23,,,,,,,2.9,1.3,2.6*31
$GPRMC,170619.000,A,4028.4250,N,08353.5264,W,0.53,163.35,140615,,*1F
$GPGGA,170620.000,4028.4247,N,08353.5263,W,1,06,1.3,310.5,M,-33.4,M,,0000*62
$GPGSA,A,3,09,16,27,07,30,23,,,,,,,2.9,1.3,2.6*31
$GPGSV,3,1,12,27,58,075,37,19,58,148,15,09,56,240,35,07,46,311,36*73
$GPGSV,3,2,12,23,40,192,23,16,35,053,32,30,16,300,32,26,10,065,28*79
$GPGSV,3,3,12,11,07,170,,10,05,274,15,04,01,153,,21,00,032,*7A
$GPRMC,170620.000,A,4028.4247,N,08353.5263,W,0.75,170.18,140615,,*1D
$GPGGA,170621.000,4028.4246,N,08353.5263,W,1,06,1.3,310.2,M,-33.4,M,,0000*65
$GPGSA,A,3,09,16,27,07,30,23,,,,,,,2.9,1.3,2.6*31
$GPRMC,170621.000,A,4028.4246,N,08353.5263,W,0.57,163.93,140615,,*1C
$GPGGA,170622.000,4028.4250,N,08353.5263,W,1,06,1.3,310.9,M,-33.4,M,,0000*6A
$GPGSA,A,3,09,16,27,07,30,23,,,,,,,2.9,1.3,2.6*31
$GPRMC,170622.000,A,4028.4250,N,08353.5263,W,0.16,109.18,140615,,*12
$GPGGA,170623.000,4028.4254,N,08353.5264,W,1,06,1.3,311.3,M,-33.4,M,,0000*63
$GPGSA,A,3,09,16,27,07,30,23,,,,,,,2.9,1.3,2.6*31
$GPRMC,170623.000,A,4028.4254,N,08353.5264,W,0.14,105.25,140615,,*10
$GPGGA,170624.000,4028.4256,N,08353.5264,W,1,06,1.3,311.6,M,-33.4,M,,0000*63
$GPGSA,A,3,09,16,27,07,30,23,,,,,,,2.9,1.3,2.6*31
$GPRMC,170624.000,A,4028.4256,N,08353.5264,W,0.23,144.02,140615,,*11
$GPGGA,170625.000,4028.4258,N,08353.5264,W,1,06,1.3,312.0,M,-33.4,M,,0000*69
$GPGSA,A,3,09,16,27,07,30,23,,,,,,,2.9,1.3,2.6*31
$GPGSV,3,1,12,27,58,075,36,19,58,148,24,09,56,240,35,07,46,311,36*70
$GPGSV,3,2,12,23,40,192,23,16,35,053,32,30,16,300,31,26,10,065,28*7A
$GPGSV,3,3,12,11,07,170,,10,05,274,16,04,01,153,,21,00,032,*79
$GPRMC,170625.000,A,4028.4258,N,08353.5264,W,0.35,165.71,140615,,*1E
$GPGGA,170626.000,4028.4259,N,08353.5264,W,1,06,1.3,312.1,M,-33.4,M,,0000*6A
$GPGSA,A,3,09,16,27,07,30,23,,,,,,,2.9,1.3,2.6*31
$GPRMC,170626.000,A,4028.4259,N,08353.5264,W,0.24,156.92,140615,,*11
$GPGGA,170627.000,4028.4257,N,08353.5264,W,1,06,1.3,311.7,M,-33.4,M,,0000*60
$GPGSA,A,3,09,16,27,07,30,23,,,,,,,2.9,1.3,2.6*31
$GPRMC,170627.000,A,4028.4257,N,08353.5264,W,0.35,162.88,140615,,*12
$GPGGA,170628.000,4028.4255,N,08353.5264,W,1,06,1.3,311.3,M,-33.4,M,,0000*69
$GPGSA,A,3,09,16,27,07,30,23,,,,,,,2.9,1.3,2.6*31
$GPRMC,170628.000,A,4028.4255,N,08353.5264,W,0.37,163.30,140615,,*1F
$GPGGA,170629.000,4028.4254,N,08353.5264,W,1,06,1.3,311.0,M,-33.4,M,,0000*6A
$GPGSA,A,3,09,16,27,07,30,23,,,,,,,2.9,1.3,2.6*31
$GPRMC,170629.000,A,4028.4254,N,08353.5264,W,0.30,159.41,140615,,*17
$GPGGA,170630.000,4028.4254,N,08353.5264,W,1,06,1.3,310.8,M,-33.4,M,,0000*6B
$GPGSA,A,3,09,16,27,07,30,23,,,,,,,2.9,1.3,2.6*31
$GPGSV,3,1,12,27,58,075,36,19,58,148,24,09,56,240,34,07,46,311,36*71
$GPGSV,3,2,12,23,40,192,24,16,35,053,32,30,16,300,31,26,10,065,27*72
$GPGSV,3,3,12,11,07,170,,10,05,274,16,04,01,153,,21,00,032,*79
$GPRMC,170630.000,A,4028.4254,N,08353.5264,W,0.36,160.07,140615,,*11
$GPGGA,170631.000,4028.4248,N,08353.5263,W,1,06,1.3,309.6,M,-33.4,M,,0000*66
$GPGSA,A,3,09,16,27,07,30,23,,,,,,,2.9,1.3,2.6*31
$GPRMC,170631.000,A,4028.4248,N,08353.5263,W,0.69,172.26,140615,,*10
$GPGGA,170632.000,4028.4244,N,08353.5263,W,1,06,1.3,308.7,M,-33.4,M,,0000*69
$GPGSA,A,3,09,16,27,07,30,23,,,,,,,2.9,1.3,2.6*31
$GPRMC,170632.000,A,4028.4244,N,08353.5263,W,0.37,156.37,140615,,*12
$GPGGA,170633.000,4028.4241,N,08353.5262,W,1,06,1.3,307.9,M,-33.4,M,,0000*6D
$GPGSA,A,3,09,16,27,07,30,23,,,,,,,2.9,1.3,2.6*31
$GPRMC,170633.000,A,4028.4241,N,08353.5262,W,0.47,162.95,140615,,*1F
$GPGGA,170634.000,4028.4239,N,08353.5262,W,1,06,1.3,307.2,M,-33.4,M,,0000*6E
$GPGSA,A,3,09,16,27,07,30,23,,,,,,,2.9,1.3,2.6*31
$GPRMC,170634.000,A,4028.4239,N,08353.5262,W,0.46,162.45,140615,,*1B
$GPGGA,170635.000,4028.4240,N,08353.5262,W,1,06,1.3,307.4,M,-33.4,M,,0000*67
$GPGSA,A,3,09,16,27,07,30,23,,,,,,,2.9,1.3,2.6*31
$GPGSV,3,1,12,27,58,075,36,19,58,148,24,09,56,240,34,07,46,311,36*71
$GPGSV,3,2,12,23,40,192,24,16,35,053,32,30,16,300,31,26,10,065,27*72
$GPGSV,3,3,12,11,07,170,,10,05,274,16,04,01,153,,21,00,032,*79
$GPRMC,170635.000,A,4028.4240,N,08353.5262,W,0.18,123.90,140615,,*12
$GPGGA,170636.000,4028.4241,N,08353.5262,W,1,06,1.3,307.3,M,-33.4,M,,0000*62
$GPGSA,A,3,09,16,27,07,30,23,,,,,,,2.9,1.3,2.6*31
$GPRMC,170636.000,A,4028.4241,N,08353.5262,W,0.44,160.28,140615,,*1D
$GPGGA,170637.000,4028.4237,N,08353.5261,W,1,06,1.3,306.5,M,-33.4,M,,0000*66
$GPGSA,A,3,09,16,27,07,30,23,,,,,,,2.9,1.3,2.6*31
$GPRMC,170637.000,A,4028.4237,N,08353.5261,W,0.32,153.40,140615,,*11
$GPGGA,170638.000,4028.4237,N,08353.5261,W,1,06,1.3,306.1,M,-33.4,M,,0000*6D
$GPGSA,A,3,09,16,27,07,30,23,,,,,,,2.9,1.3,2.6*31
$GPRMC,170638.000,A,4028.4237,N,08353.5261,W,0.40,160.17,140615,,*19
$GPGGA,170639.000,4028.4233,N,08353.5260,W,1,06,1.3,305.3,M,-33.4,M,,0000*68
$GPGSA,A,3,09,16,27,07,30,23,,,,,,,2.9,1.3,2.6*31
$GPRMC,170639.000,A,4028.4233,N,08353.5260,W,0.59,168.94,140615,,*16
$GPGGA,170640.000,4028.4232,N,08353.5260,W,1,06,1.3,304.7,M,-33.4,M,,0000*62
$GPGSA,A,3,09,16,27,07,30,23,,,,,,,2.9,1.3,2.6*31
$GPGSV,3,1,12,19,58,147,24,27,58,075,36,09,56,240,34,07,46,311,36*7E
$GPGSV,3,2,12,23,40,192,25,16,35,053,33,30,16,300,24,26,09,065,26*7F
$GPGSV,3,3,12,11,07,170,,10,05,274,16,04,01,153,,21,00,031,*7A
$GPRMC,170640.000,A,4028.4232,N,08353.5260,W,0.18,163.56,140615,,*19
$GPGGA,170641.000,4028.4234,N,08353.5261,W,1,06,1.3,304.7,M,-33.4,M,,0000*64
$GPGSA,A,3,09,16,27,07,30,23,,,,,,,2.9,1.3,2.6*31
$GPRMC,170641.000,A,4028.4234,N,08353.5261,W,0.39,160.63,140615,,*19
$GPGGA,170642.000,4028.4235,N,08353.5261,W,1,06,1.3,304.7,M,-33.4,M,,0000*66
$GPGSA,A,3,09,16,27,07,30,23,,,,,,,2.9,1.3,2.6*31
$GPRMC,170642.000,A,4028.4235,N,08353.5261,W,0.57,167.06,140615,,*17
$GPGGA,170643.000,4028.4241,N,08353.5262,W,1,06,1.3,305.7,M,-33.4,M,,0000*66
$GPGSA,A,3,09,16,27,07,30,23,,,,,,,2.9,1.3,2.6*31
$GPRMC,170643.000,A,4028.4241,N,08353.5262,W,0.19,34.85,140615,,*20
$GPGGA,170644.000,4028.4246,N,08353.5262,W,1,06,1.3,306.6,M,-33.4,M,,0000*64
$GPGSA,A,3,09,16,27,07,30,23,,,,,,,2.9,1.3,2.6*31
$GPRMC,170644.000,A,4028.4246,N,08353.5262,W,0.12,90.80,140615,,*20
$GPGGA,170645.000,4028.4251,N,08353.5263,W,1,06,1.3,307.6,M,-33.4,M,,0000*63
$GPGSA,A,3,09,16,27,07,30,23,,,,,,,2.9,1.3,2.6*31
$GPGSV,3,1,12,19,58,147,24,27,58,075,37,09,56,240,34,07,46,311,36*7F
$GPGSV,3,2,12,23,40,192,26,16,35,053,33,30,16,301,29,26,09,065,26*70
$GPGSV,3,3,12,11,08,170,,10,05,274,15,04,01,153,,21,00,031,*76
$GPRMC,170645.000,A,4028.4251,N,08353.5263,W,0.11,62.43,140615,,*27
$GPGGA,170646.000,4028.4255,N,08353.5264,W,1,06,1.3,308.4,M,-33.4,M,,0000*6E
$GPGSA,A,3,09,16,27,07,30,23,,,,,,,2.9,1.3,2.6*31
$GPRMC,170646.000,A,4028.4255,N,08353.5264,W,0.06,75.51,140615,,*24
$GPGGA,170647.000,4028.4257,N,08353.5264,W,1,06,1.3,308.9,M,-33.4,M,,0000*60
$GPGSA,A,3,09,16,27,07,30,23,,,,,,,2.9,1.3,2.6*31
$GPRMC,170647.000,A,4028.4257,N,08353.5264,W,0.10,42.59,140615,,*2C
$GPGGA,170648.000,4028.4258,N,08353.5264,W,1,06,1.3,309.3,M,-33.4,M,,0000*6B
$GPGSA,A,3,09,16,27,07,30,23,,,,,,,2.9,1.3,2.6*31
$GPRMC,170648.000,A,4028.4258,N,08353.5264,W,0.16,158.74,140615,,*1F
$GPGGA,170649.000,4028.4259,N,08353.5264,W,1,06,1.3,309.7,M,-33.4,M,,0000*6F
$GPGSA,A,3,09,16,27,07,30,23,,,,,,,2.9,1.3,2.6*31
$GPRMC,170649.000,A,4028.4259,N,08353.5264,W,0.09,156.86,140615,,*12
$GPGGA,170650.000,4028.4260,N,08353.5265,W,1,06,1.3,309.9,M,-33.4,M,,0000*62
$GPGSA,A,3,09,16,27,07,30,23,,,,,,,2.9,1.3,2.6*31
$GPGSV,3,1,12,19,58,147,24,27,58,075,37,09,56,240,34,07,46,311,36*7F
$GPGSV,3,2,12,23,40,192,26,16,35,053,33,30,16,301,29,26,09,065,21*77
$GPGSV,3,3,12,11,08,170,,10,05,274,16,04,01,153,,21,00,031,*75
$GPRMC,170650.000,A,4028.4260,N,08353.5265,W,0.09,137.50,140615,,*1D
$GPGGA,170651.000,4028.4260,N,08353.5265,W,1,06,1.3,310.2,M,-33.4,M,,0000*60
$GPGSA,A,3,09,16,27,07,30,23,,,,,,,2.9,1.3,2.6*31
$GPRMC,170651.000,A,4028.4260,N,08353.5265,W,0.11,147.53,140615,,*11
$GPGGA,170652.000,4028.4260,N,08353.5265,W,1,06,1.3,310.3,M,-33.4,M,,0000*62
$GPGSA,A,3,09,16,27,07,30,23,,,,,,,2.9,1.3,2.6*31
$GPRMC,170652.000,A,4028.4260,N,08353.5265,W,0.11,156.11,140615,,*14
$GPGGA,170653.000,4028.4260,N,08353.5265,W,1,06,1.3,310.5,M,-33.4,M,,0000*65
$GPGSA,A,3,09,16,27,07,30,23,,,,,,,2.9,1.3,2.6*31
$GPRMC,170653.000,A,4028.4260,N,08353.5265,W,0.08,143.75,140615,,*1B
$GPGGA,170654.000,4028.4260,N,08353.5265,W,1,06,1.3,310.7,M,-33.4,M,,0000*60
$GPGSA,A,3,09,16,27,07,30,23,,,,,,,2.9,1.3,2.6*31
$GPRMC,170654.000,A,4028.4260,N,08353.5265,W,0.12,155.31,140615,,*10
$GPGGA,170655.000,4028.4259,N,08353.5265,W,1,06,1.3,310.8,M,-33.4,M,,0000*64
$GPGSA,A,3,09,16,27,07,30,23,,,,,,,2.9,1.3,2.6*31
$GPGSV,3,1,12,19,58,147,24,27,58,075,37,09,56,240,34,07,46,311,37*7E
$GPGSV,3,2,12,23,40,192,27,16,35,053,34,30,16,301,29,26,09,065,22*72
$GPGSV,3,3,12,11,08,170,,10,05,274,16,04,01,153,,21,00,031,*75
$GPRMC,170655.000,A,4028.4259,N,08353.5265,W,0.11,147.53,140615,,*1F
$GPGGA,170656.000,4028.4259,N,08353.5265,W,1,06,1.3,310.9,M,-33.4,M,,0000*66
$GPGSA,A,3,09,16,27,07,30,23,,,,,,,2.9,1.3,2.6*31
$GPRMC,170656.000,A,4028.4259,N,08353.5265,W,0.11,154.51,140615,,*1C
$GPGGA,170657.000,4028.4259,N,08353.5265,W,1,06,1.3,311.0,M,-33.4,M,,0000*6F
$GPGSA,A,3,09,16,27,07,30,23,,,,,,,2.9,1.3,2.6*31
$GPRMC,170657.000,A,4028.4259,N,08353.5265,W,0.11,154.44,140615,,*19
$GPGGA,170658.000,4028.4259,N,08353.5265,W,1,06,1.3,311.2,M,-33.4,M,,0000*62
$GPGSA,A,3,09,16,27,07,30,23,,,,,,,2.9,1.3,2.6*31
$GPRMC,170658.000,A,4028.4259,N,08353.5265,W,0.11,157.28,140615,,*1F
$GPGGA,170659.000,4028.4259,N,08353.5265,W,1,06,1.3,311.3,M,-33.4,M,,0000*62
$GPGSA,A,3,09,16,27,07,30,23,,,,,,,2.9,1.3,2.6*31
$GPRMC,170659.000,A,4028.4259,N,08353.5265,W,0.12,148.73,140615,,*1D
$GPGGA,170700.000,4028.4259,N,08353.5265,W,1,06,1.3,311.5,M,-33.4,M,,0000*69
$GPGSA,A,3,09,16,27,07,30,23,,,,,,,2.9,1.3,2.6*31
$GPGSV,3,1,12,19,58,147,23,27,58,075,37,09,56,240,35,07,46,311,37*78
$GPGSV,3,2,12,23,40,192,27,16,35,053,34,30,16,301,29,26,09,065,23*73
$GPGSV,3,3,12,11,08,170,,10,05,274,17,04,01,153,,21,00,031,*74
$GPRMC,170700.000,A,4028.4259,N,08353.5265,W,0.13,148.82,140615,,*1F
$GPGGA,170701.000,4028.4259,N,08353.5265,W,1,06,1.3,311.6,M,-33.4,M,,0000*6B
$GPGSA,A,3,09,16,27,07,30,23,,,,,,,2.9,1.3,2.6*31
$GPRMC,170701.000,A,4028.4259,N,08353.5265,W,0.08,150.85,140615,,*1A
$GPGGA,170702.000,4028.4259,N,08353.5265,W,1,06,1.3,311.7,M,-33.4,M,,0000*69
$GPGSA,A,3,09,16,27,07,30,23,,,,,,,2.9,1.3,2.6*31
$GPRMC,170702.000,A,4028.4259,N,08353.5265,W,0.12,149.36,140615,,*12
$GPGGA,170703.000,4028.4259,N,08353.5265,W,1,06,1.3,311.8,M,-33.4,M,,0000*67
$GPGSA,A,3,09,16,27,07,30,23,,,,,,,2.9,1.3,2.6*31
$GPRMC,170703.000,A,4028.4259,N,08353.5265,W,0.10,148.10,140615,,*14
$GPGGA,170704.000,4028.4259,N,08353.5265,W,1,06,1.3,311.9,M,-33.4,M,,0000*61
$GPGSA,A,3,09,16,27,07,30,23,,,,,,,2.9,1.3,2.6*31
$GPRMC,170704.000,A,4028.4259,N,08353.5265,W,0.11,143.54,140615,,*19
$GPGGA,170705.000,4028.4259,N,08353.5265,W,1,06,1.3,312.0,M,-33.4,M,,0000*6A
$GPGSA,A,3,09,16,27,07,30,23,,,,,,,2.9,1.3,2.6*31
$GPGSV,3,1,12,19,58,147,22,27,58,075,37,09,56,240,35,07,46,311,37*79
$GPGSV,3,2,12,23,40,192,28,16,35,053,34,30,16,301,29,26,09,065,23*7C
$GPGSV,3,3,12,11,08,170,,10,05,274,16,04,01,153,,21,00,031,*75
$GPRMC,170705.000,A,4028.4259,N,08353.5265,W,0.11,147.79,140615,,*13
$GPGGA,170706.000,4028.4259,N,08353.5265,W,1,06,1.3,312.1,M,-33.4,M,,0000*68
$GPGSA,A,3,09,16,27,07,30,23,,,,,,,2.9,1.3,2.6*31
$GPRMC,170706.000,A,4028.4259,N,08353.5265,W,0.11,148.00,140615,,*11
$GPGGA,170707.000,4028.4259,N,08353.5265,W,1,06,1.3,312.2,M,-33.4,M,,0000*6A
$GPGSA,A,3,09,16,27,07,30,23,,,,,,,2.9,1.3,2.6*31
$GPRMC,170707.000,A,4028.4259,N,08353.5265,W,0.13,153.32,140615,,*19
$GPGGA,170708.000,4028.4259,N,08353.5265,W,1,06,1.3,312.2,M,-33.4,M,,0000*65
$GPGSA,A,3,09,16,27,07,30,23,,,,,,,2.9,1.3,2.6*31
$GPRMC,170708.000,A,4028.4259,N,08353.5265,W,0.12,148.93,140615,,*16
$GPGGA,170709.000,4028.4259,N,08353.5265,W,1,06,1.3,312.2,M,-33.4,M,,0000*64
$GPGSA,A,3,09,16,27,07,30,23,,,,,,,2.9,1.3,2.6*31
$GPRMC,170709.000,A,4028.4259,N,08353.5265,W,0.13,155.19,140615,,*18
$GPGGA,170710.000,4028.4258,N,08353.5265,W,1,06,1.3,312.2,M,-33.4,M,,0000*6D
$GPGSA,A,3,09,16,27,07,30,23,,,,,,,2.9,1.3,2.6*31
$GPGSV,3,1,12,19,58,147,19,27,58,075,37,09,55,239,35,07,46,311,37*7C
$GPGSV,3,2,12,23,40,191,28,16,35,053,34,30,16,301,34,26,09,065,23*73
$GPGSV,3,3,12,11,08,170,,10,05,274,16,04,01,153,,21,00,031,*75
$GPRMC,170710.000,A,4028.4258,N,08353.5265,W,0.15,151.76,140615,,*1A
$GPGGA,170711.000,4028.4258,N,08353.5265,W,1,06,1.3,312.1,M,-33.4,M,,0000*6F
$GPGSA,A,3,09,16,27,07,30,23,,,,,,,2.9,1.3,2.6*31
$GPRMC,170711.000,A,4028.4258,N,08353.5265,W,0.16,151.68,140615,,*17
$GPGGA,170712.000,4028.4257,N,08353.5265,W,1,06,1.3,312.1,M,-33.4,M,,0000*63
$GPGSA,A,3,09,16,27,07,30,23,,,,,,,2.9,1.3,2.6*31
$GPRMC,170712.000,A,4028.4257,N,08353.5265,W,0.14,153.02,140615,,*17
$GPGGA,170713.000,4028.4257,N,08353.5265,W,1,06,1.3,312.0,M,-33.4,M,,0000*63
$GPGSA,A,3,09,16,27,07,30,23,,,,,,,2.9,1.3,2.6*31
$GPRMC,170713.000,A,4028.4257,N,08353.5265,W,0.15,146.39,140615,,*1B
$GPGGA,170714.000,4028.4257,N,08353.5265,W,1,06,1.3,312.0,M,-33.4,M,,0000*64
$GPGSA,A,3,09,16,27,07,30,23,,,,,,,2.9,1.3,2.6*31
$GPRMC,170714.000,A,4028.4257,N,08353.5265,W,0.16,149.49,140615,,*17
$GPGGA,170715.000,4028.4256,N,08353.5265,W,1,06,1.3,312.0,M,-33.4,M,,0000*64
$GPGSA,A,3,09,16,27,07,30,23,,,,,,,2.9,1.3,2.6*31
$GPGSV,3,1,12,19,59,147,25,27,58,074,37,09,55,239,34,07,46,311,37*72
$GPGSV,3,2,12,23,40,191,28,16,35,053,34,30,16,301,32,26,09,065,23*75
$GPGSV,3,3,12,11,08,170,,10,05,274,15,04,02,153,,21,00,031,*75
$GPRMC,170715.000,A,4028.4256,N,08353.5265,W,0.15,150.90,140615,,*18
$GPGGA,170716.000,4028.4256,N,08353.5265,W,1,06,1.3,312.0,M,-33.4,M,,0000*67
$GPGSA,A,3,09,16,27,07,30,23,,,,,,,2.9,1.3,2.6*31
$GPRMC,170716.000,A,4028.4256,N,08353.5265,W,0.15,144.14,140615,,*12
$GPGGA,170717.000,4028.4256,N,08353.5265,W,1,06,1.3,312.0,M,-33.4,M,,0000*66
$GPGSA,A,3,09,16,27,07,30,23,,,,,,,2.9,1.3,2.6*31
$GPRMC,170717.000,A,4028.4256,N,08353.5265,W,0.15,145.18,140615,,*1E
$GPGGA,170718.000,4028.4255,N,08353.5264,W,1,06,1.3,312.0,M,-33.4,M,,0000*6B
$GPGSA,A,3,09,16,27,07,30,23,,,,,,,2.9,1.3,2.6*31
$GPRMC,170718.000,A,4028.4255,N,08353.5264,W,0.16,151.36,140615,,*19
$GPGGA,170719.000,4028.4255,N,08353.5264,W,1,06,1.3,311.9,M,-33.4,M,,0000*60
$GPGSA,A,3,09,16,27,07,30,23,,,,,,,2.9,1.3,2.6*31
$GPRMC,170719.000,A,4028.4255,N,08353.5264,W,0.15,140.35,140615,,*18
$GPGGA,170720.000,4028.4255,N,08353.5264,W,1,06,1.3,311.8,M,-33.4,M,,0000*6B
$GPGSA,A,3,09,16,27,07,30,23,,,,,,,2.9,1.3,2.6*31
$GPGSV,3,1,12,19,59,147,25,27,58,074,37,09,55,239,34,07,46,311,36*73
$GPGSV,3,2,12,23,40,191,28,16,35,053,35,30,16,301,32,26,09,065,23*74
$GPGSV,3,3,12,11,08,170,,10,05,274,14,04,02,153,,21,00,031,*74
$GPRMC,170720.000,A,4028.4255,N,08353.5264,W,0.15,151.56,140615,,*17
$GPGGA,170721.000,4028.4254,N,08353.5264,W,1,06,1.3,311.7,M,-33.4,M,,0000*64
$GPGSA,A,3,09,16,27,07,30,23,,,,,,,2.9,1.3,2.6*31
$GPRMC,170721.000,A,4028.4254,N,08353.5264,W,0.18,146.26,140615,,*1B
$GPGGA,170722.000,4028.4254,N,08353.5264,W,1,06,1.3,311.6,M,-33.4,M,,0000*66
$GPGSA,A,3,09,16,27,07,30,23,,,,,,,2.9,1.3,2.6*31
$GPRMC,170722.000,A,4028.4254,N,08353.5264,W,0.14,147.44,140615,,*11
$GPGGA,170723.000,4028.4253,N,08353.5264,W,1,06,1.3,311.4,M,-33.4,M,,0000*62
$GPGSA,A,3,09,16,27,07,30,23,,,,,,,2.9,1.3,2.6*31
$GPRMC,170723.000,A,4028.4253,N,08353.5264,W,0.17,144.65,140615,,*14
$GPGGA,170724.000,4028.4253,N,08353.5264,W,1,06,1.3,311.3,M,-33.4,M,,0000*62
$GPGSA,A,3,09,16,27,07,30,23,,,,,,,2.9,1.3,2.6*31
$GPRMC,170724.000,A,4028.4253,N,08353.5264,W,0.17,145.47,140615,,*12
$GPGGA,170725.000,4028.4253,N,08353.5264,W,1,06,1.3,311.1,M,-33.4,M,,0000*61
$GPGSA,A,3,09,16,27,07,30,23,,,,,,,2.9,1.3,2.6*31
$GPGSV,3,1,12,19,59,147,25,27,58,074,37,09,55,239,34,07,46,311,36*73
$GPGSV,3,2,12,23,40,191,29,16,35,053,35,30,16,301,32,26,09,065,23*75
$GPGSV,3,3,12,11,08,170,,10,05,274,15,04,02,153,,21,00,031,*75
$GPRMC,170725.000,A,4028.4253,N,08353.5264,W,0.16,141.51,140615,,*11
$GPGGA,170726.000,4028.4253,N,08353.5264,W,1,06,1.3,311.0,M,-33.4,M,,0000*63
$GPGSA,A,3,09,16,27,07,30,23,,,,,,,2.9,1.3,2.6*31
$GPRMC,170726.000,A,4028.4253,N,08353.5264,W,0.14,144.62,140615,,*15
$GPGGA,170727.000,4028.4253,N,08353.5264,W,1,06,1.3,311.1,M,-33.4,M,,0000*63
$GPGSA,A,3,09,16,27,07,30,23,,,,,,,2.9,1.3,2.6*31
$GPRMC,170727.000,A,4028.4253,N,08353.5264,W,0.16,144.92,140615,,*19
$GPGGA,170728.000,4028.4254,N,08353.5264,W,1,06,1.3,311.1,M,-33.4,M,,0000*6B
$GPGSA,A,3,09,16,27,07,30,23,,,,,,,2.9,1.3,2.6*31
$GPRMC,170728.000,A,4028.4254,N,08353.5264,W,0.10,141.16,140615,,*1E
$GPGGA,170729.000,4028.4254,N,08353.5264,W,1,06,1.3,310.8,M,-33.4,M,,0000*62
$GPGSA,A,3,09,16,27,07,30,23,,,,,,,2.9,1.3,2.6*31
$GPRMC,170729.000,A,4028.4254,N,08353.5264,W,0.15,150.98,140615,,*1C
$GPGGA,170730.000,4028.4253,N,08353.5264,W,1,06,1.3,310.7,M,-33.4,M,,0000*62
$GPGSA,A,3,09,16,27,07,30,23,,,,,,,2.9,1.3,2.6*31
$GPGSV,3,1,12,19,59,147,25,27,58,074,37,09,55,239,35,07,46,311,37*73
$GPGSV,3,2,12,23,40,191,28,16,35,053,35,30,16,301,29,26,09,065,23*7E
$GPGSV,3,3,12,11,08,170,,10,05,274,16,04,02,153,,21,00,031,*76
$GPRMC,170730.000,A,4028.4253,N,08353.5264,W,0.18,142.12,140615,,*1F
$GPGGA,170731.000,4028.4253,N,08353.5264,W,1,06,1.3,310.5,M,-33.4,M,,0000*61
$GPGSA,A,3,09,16,27,07,30,23,,,,,,,2.9,1.3,2.6*31
$GPRMC,170731.000,A,4028.4253,N,08353.5264,W,0.15,148.17,140615,,*1C
$GPGGA,170732.000,4028.4253,N,08353.5264,W,1,06,1.3,310.3,M,-33.4,M,,0000*64
$GPGSA,A,3,09,16,27,07,30,23,,,,,,,2.9,1.3,2.6*31
$GPRMC,170732.000,A,4028.4253,N,08353.5264,W,0.17,145.88,140615,,*16
$GPGGA,170733.000,4028.4252,N,08353.5264,W,1,06,1.3,310.2,M,-33.4,M,,0000*65
$GPGSA,A,3,09,16,27,07,30,23,,,,,,,2.9,1.3,2.6*31
$GPRMC,170733.000,A,4028.4252,N,08353.5264,W,0.17,142.53,140615,,*17
$GPGGA,170734.000,4028.4252,N,08353.5264,W,1,06,1.3,310.0,M,-33.4,M,,0000*60
$GPGSA,A,3,09,16,27,07,30,23,,,,,,,2.9,1.3,2.6*31
$GPRMC,170734.000,A,4028.4252,N,08353.5264,W,0.16,141.39,140615,,*1E
$GPGGA,170735.000,4028.4252,N,08353.5264,W,1,06,1.3,309.8,M,-33.4,M,,0000*61
$GPGSA,A,3,09,16,27,07,30,23,,,,,,,2.9,1.3,2.6*31
$GPGSV,3,1,12,19,59,147,25,27,58,074,37,09,55,239,35,07,46,311,37*73
$GPGSV,3,2,12,23,40,191,28,16,35,053,34,30,16,301,31,26,09,065,23*76
$GPGSV,3,3,12,11,08,170,,10,05,274,18,04,02,153,,21,00,031,*78
$GPRMC,170735.000,A,4028.4252,N,08353.5264,W,0.18,148.06,140615,,*14
$GPGGA,170736.000,4028.4252,N,08353.5263,W,1,06,1.3,309.7,M,-33.4,M,,0000*6A
$GPGSA,A,3,09,16,27,07,30,23,,,,,,,2.9,1.3,2.6*31
$GPRMC,170736.000,A,4028.4252,N,08353.5263,W,0.19,147.25,140615,,*1F
$GPGGA,170737.000,4028.4251,N,08353.5263,W,1,06,1.3,309.5,M,-33.4,M,,0000*6A
$GPGSA,A,3,09,16,27,07,30,23,,,,,,,2.9,1.3,2.6*31
$GPRMC,170737.000,A,4028.4251,N,08353.5263,W,0.18,145.49,140615,,*14
$GPGGA,170738.000,4028.4251,N,08353.5263,W,1,06,1.3,309.3,M,-33.4,M,,0000*63
$GPGSA,A,3,09,16,27,07,30,23,,,,,,,2.9,1.3,2.6*31
$GPRMC,170738.000,A,4028.4251,N,08353.5263,W,0.18,151.99,140615,,*13
$GPGGA,170739.000,4028.4251,N,08353.5263,W,1,06,1.3,309.1,M,-33.4,M,,0000*60
$GPGSA,A,3,09,16,27,07,30,23,,,,,,,2.9,1.3,2.6*31
$GPRMC,170739.000,A,4028.4251,N,08353.5263,W,0.19,147.75,140615,,*16
$GPGGA,170740.000,4028.4250,N,08353.5263,W,1,06,1.3,308.8,M,-33.4,M,,0000*67
$GPGSA,A,3,09,16,27,07,30,23,,,,,,,2.9,1.3,2.6*31
$GPGSV,3,1,12,19,59,147,25,27,58,074,37,09,55,239,35,07,46,311,37*73
$GPGSV,3,2,12,23,40,191,28,16,35,053,35,30,16,301,31,26,09,065,24*70
$GPGSV,3,3,12,11,08,170,,10,05,274,19,04,02,153,,21,00,031,*79
$GPRMC,170740.000,A,4028.4250,N,08353.5263,W,0.19,147.13,140615,,*19
$GPGGA,170741.000,4028.4250,N,08353.5263,W,1,06,1.3,308.6,M,-33.4,M,,0000*68
$GPGSA,A,3,09,16,27,07,30,23,,,,,,,2.9,1.3,2.6*31
$GPRMC,170741.000,A,4028.4250,N,08353.5263,W,0.18,146.03,140615,,*19
$GPGGA,170742.000,4028.4250,N,08353.5263,W,1,06,1.3,308.5,M,-33.4,M,,0000*68
$GPGSA,A,3,09,16,27,07,30,23,,,,,,,2.9,1.3,2.6*31
$GPRMC,170742.000,A,4028.4250,N,08353.5263,W,0.18,146.71,140615,,*1F
$GPGGA,170743.000,4028.4249,N,08353.5263,W,1,06,1.3,308.3,M,-33.4,M,,0000*67
$GPGSA,A,3,09,16,27,07,30,23,,,,,,,2.9,1.3,2.6*31
$GPRMC,170743.000,A,4028.4249,N,08353.5263,W,0.18,150.95,140615,,*1B
$GPGGA,170744.000,4028.4249,N,08353.5263,W,1,06,1.3,308.1,M,-33.4,M,,0000*62
$GPGSA,A,3,09,16,27,07,30,23,,,,,,,2.9,1.3,2.6*31
$GPRMC,170744.000,A,4028.4249,N,08353.5263,W,0.20,149.53,140615,,*15
$GPGGA,170745.000,4028.4249,N,08353.5263,W,1,06,1.3,308.0,M,-33.4,M,,0000*62
$GPGSA,A,3,09,16,27,07,30,23,,,,,,,2.9,1.3,2.6*31
$GPGSV,3,1,12,19,59,147,26,27,58,074,37,09,55,239,35,07,47,311,38*7E
$GPGSV,3,2,12,23,40,191,27,16,35,053,35,30,16,301,32,26,09,065,24*7C
$GPGSV,3,3,12,11,08,170,,10,05,274,18,04,02,152,,21,00,031,*79
$GPRMC,170745.000,A,4028.4249,N,08353.5263,W,0.20,157.55,140615,,*1D
$GPGGA,170746.000,4028.4248,N,08353.5263,W,1,06,1.3,307.8,M,-33.4,M,,0000*67
$GPGSA,A,3,09,16,27,07,30,23,,,,,,,2.9,1.3,2.6*31
$GPRMC,170746.000,A,4028.4248,N,08353.5263,W,0.19,150.43,140615,,*15
$GPGGA,170747.000,4028.4248,N,08353.5263,W,1,06,1.3,307.7,M,-33.4,M,,0000*69
$GPGSA,A,3,09,16,27,07,30,23,,,,,,,2.9,1.3,2.6*31
$GPRMC,170747.000,A,4028.4248,N,08353.5263,W,0.19,153.18,140615,,*19
$GPGGA,170748.000,4028.4248,N,08353.5263,W,1,06,1.3,307.6,M,-33.4,M,,0000*67
$GPGSA,A,3,09,16,27,07,30,23,,,,,,,2.9,1.3,2.6*31
$GPRMC,170748.000,A,4028.4248,N,08353.5263,W,0.19,154.20,140615,,*1A
$GPGGA,170749.000,4028.4248,N,08353.5263,W,1,06,1.3,307.5,M,-33.4,M,,0000*65
$GPGSA,A,3,09,16,27,07,30,23,,,,,,,2.9,1.3,2.6*31
$GPRMC,170749.000,A,4028.4248,N,08353.5263,W,0.19,151.07,140615,,*1B
$GPGGA,170750.000,4028.4247,N,08353.5263,W,1,06,1.3,307.4,M,-33.4,M,,0000*63
$GPGSA,A,3,09,16,27,07,30,23,,,,,,,2.9,1.3,2.6*31
$GPGSV,3,1,12,19,59,147,26,27,58,074,37,09,55,239,36,07,47,311,38*7D
$GPGSV,3,2,12,23,40,191,27,16,35,053,36,30,16,301,33,26,09,065,24*7E
$GPGSV,3,3,12,11,08,170,,10,05,274,16,04,02,152,,21,00,031,*77
$GPRMC,170750.000,A,4028.4247,N,08353.5263,W,0.18,152.62,140615,,*1D
$GPGGA,170751.000,4028.4247,N,08353.5263,W,1,06,1.3,307.2,M,-33.4,M,,0000*64
$GPGSA,A,3,09,16,27,07,30,23,,,,,,,2.9,1.3,2.6*31
$GPRMC,170751.000,A,4028.4247,N,08353.5263,W,0.20,155.39,140615,,*1E
$GPGGA,170752.000,4028.4247,N,08353.5263,W,1,06,1.3,307.1,M,-33.4,M,,0000*64
$GPGSA,A,3,09,16,27,07,30,23,,,,,,,2.9,1.3,2.6*31
$GPRMC,170752.000,A,4028.4247,N,08353.5263,W,0.17,150.59,140615,,*1A
$GPGGA,170753.000,4028.4247,N,08353.5263,W,1,06,1.3,307.1,M,-33.4,M,,0000*65
$GPGSA,A,3,09,16,27,07,30,23,,,,,,,2.9,1.3,2.6*31
$GPRMC,170753.000,A,4028.4247,N,08353.5263,W,0.19,153.37,140615,,*1E
$GPGGA,170754.000,4028.4246,N,08353.5263,W,1,06,1.3,307.0,M,-33.4,M,,0000*62
$GPGSA,A,3,09,16,27,07,30,23,,,,,,,2.9,1.3,2.6*31
$GPRMC,170754.000,A,4028.4246,N,08353.5263,W,0.18,151.40,140615,,*1B
$GPGGA,170755.000,4028.4246,N,08353.5263,W,1,06,1.3,306.9,M,-33.4,M,,0000*6B
$GPGSA,A,3,09,16,27,07,30,23,,,,,,,2.9,1.3,2.6*31
$GPGSV,3,1,12,19,59,147,27,27,58,074,37,09,55,239,37,07,47,311,37*72
$GPGSV,3,2,12,23,40,191,26,16,35,053,36,30,16,301,33,26,09,065,24*7F
$GPGSV,3,3,12,11,08,170,,10,05,274,15,04,02,152,,21,00,031,*74
$GPRMC,170755.000,A,4028.4246,N,08353.5263,W,0.20,154.29,140615,,*1B
$GPGGA,170756.000,4028.4246,N,08353.5263,W,2,06,1.3,306.8,M,-33.4,M,,0000*6A
$GPGSA,A,3,09,16,27,07,30,23,,,,,,,2.9,1.3,2.6*31
$GPRMC,170756.000,A,4028.4246,N,08353.5263,W,0.17,152.04,140615,,*15
$GPGGA,170757.000,4028.4246,N,08353.5264,W,2,06,1.3,306.8,M,-33.4,M,,0000*6C
$GPGSA,A,3,09,16,27,07,30,23,,,,,,,2.9,1.3,2.6*31
$GPRMC,170757.000,A,4028.4246,N,08353.5264,W,0.10,146.18,140615,,*1C
$GPGGA,170758.000,4028.4246,N,08353.5264,W,2,06,1.3,306.8,M,-33.4,M,1.8,0000*44
$GPGSA,A,3,09,16,27,07,30,23,,,,,,,2.9,1.3,2.6*31
$GPRMC,170758.000,A,4028.4246,N,08353.5264,W,0.24,166.02,140615,,*1D
$GPGGA,170759.000,4028.4246,N,08353.5264,W,2,06,1.3,306.8,M,-33.4,M,,0000*62
$GPGSA,A,3,09,16,27,07,30,23,,,,,,,2.9,1.3,2.6*31
$GPRMC,170759.000,A,4028.4246,N,08353.5264,W,0.21,160.01,140615,,*1C
$GPGGA,170800.000,4028.4246,N,08353.5264,W,2,06,1.3,306.8,M,-33.4,M,,0000*61
$GPGSA,A,3,09,16,27,07,30,23,,,,,,,2.9,1.3,2.6*31
$GPGSV,3,1,12,19,59,147,27,27,58,074,38,09,55,239,37,07,47,311,37*7D
$GPGSV,3,2,12,23,40,191,26,16,35,053,36,30,16,301,33,26,09,065,23*78
$GPGSV,3,3,12,11,08,170,,10,05,274,,04,02,152,,21,00,031,*70
$GPRMC,170800.000,A,4028.4246,N,08353.5264,W,0.16,158.65,140615,,*12
$GPGGA,170801.000,4028.4246,N,08353.5264,W,2,06,1.3,306.6,M,-33.4,M,,0000*6E
$GPGSA,A,3,09,16,27,07,30,23,,,,,,,2.9,1.3,2.6*31
$GPRMC,170801.000,A,4028.4246,N,08353.5264,W,0.16,144.38,140615,,*16
$GPGGA,170802.000,4028.4245,N,08353.5264,W,2,06,1.3,306.5,M,-33.4,M,,0000*6D
$GPGSA,A,3,09,16,27,07,30,23,,,,,,,2.9,1.3,2.6*31
$GPRMC,170802.000,A,4028.4245,N,08353.5264,W,0.17,151.79,140615,,*16
$GPGGA,170803.000,4028.4245,N,08353.5264,W,2,06,1.3,306.4,M,-33.4,M,1.8,0000*4A
$GPGSA,A,3,09,16,27,07,30,23,,,,,,,2.9,1.3,2.6*31
$GPRMC,170803.000,A,4028.4245,N,08353.5264,W,0.17,146.99,140615,,*1F
$GPGGA,170804.000,4028.4245,N,08353.5264,W,2,06,1.3,306.3,M,-33.4,M,2.8,0000*49
$GPGSA,A,3,09,16,27,07,30,23,,,,,,,2.9,1.3,2.6*31
$GPRMC,170804.000,A,4028.4245,N,08353.5264,W,0.16,148.70,140615,,*10
$GPGGA,170805.000,4028.4245,N,08353.5264,W,2,06,1.3,306.2,M,-33.4,M,,0000*6D
$GPGSA,A,3,09,16,27,07,30,23,,,,,,,2.9,1.3,2.6*31
$GPGSV,3,1,12,19,59,147,28,27,58,074,38,09,55,239,37,07,47,311,37*72
$GPGSV,3,2,12,23,40,191,25,16,35,053,36,30,16,301,34,26,09,065,22*7D
$GPGSV,3,3,12,11,08,170,,10,05,274,,04,02,152,,21,00,031,*70
$GPRMC,170805.000,A,4028.4245,N,08353.5264,W,0.14,141.19,140615,,*15
$GPGGA,170806.000,4028.4246,N,08353.5264,W,2,06,1.3,306.2,M,-33.4,M,,0000*6D
$GPGSA,A,3,09,16,27,07,30,23,,,,,,,2.9,1.3,2.6*31
$GPRMC,170806.000,A,4028.4246,N,08353.5264,W,0.13,61.15,140615,,*2D
$GPGGA,170807.000,4028.4246,N,08353.5264,W,2,06,1.3,306.2,M,-33.4,M,,0000*6C
$GPGSA,A,3,09,16,27,07,30,23,,,,,,,2.9,1.3,2.6*31
$GPRMC,170807.000,A,4028.4246,N,08353.5264,W,0.28,166.29,140615,,*1D
$GPGGA,170808.000,4028.4245,N,08353.5264,W,2,06,1.3,306.1,M,-33.4,M,,0000*63
$GPGSA,A,3,09,16,27,07,30,23,,,,,,,2.9,1.3,2.6*31
$GPRMC,170808.000,A,4028.4245,N,08353.5264,W,0.37,166.15,140615,,*10
$GPGGA,170809.000,4028.4245,N,08353.5264,W,2,06,1.3,306.2,M,-33.4,M,1.8,0000*46
$GPGSA,A,3,09,16,27,07,30,23,,,,,,,2.9,1.3,2.6*31
$GPRMC,170809.000,A,4028.4245,N,08353.5264,W,0.17,154.79,140615,,*18
$GPGGA,170810.000,4028.4245,N,08353.5264,W,2,06,1.3,306.2,M,-33.4,M,2.8,0000*4D
$GPGSA,A,3,09,16,27,07,30,23,,,,,,,2.9,1.3,2.6*31
$GPGSV,3,1,12,19,59,147,28,27,58,074,38,09,55,238,37,07,47,311,37*73
$GPGSV,3,2,12,23,40,191,24,16,35,053,36,30,17,301,34,26,09,065,22*7D
$GPGSV,3,3,12,11,08,170,,10,05,273,,04,02,152,,21,00,031,*77
$GPRMC,170810.000,A,4028.4245,N,08353.5264,W,0.20,159.07,140615,,*10
$GPGGA,170811.000,4028.4244,N,08353.5264,W,2,06,1.3,306.1,M,-33.4,M,,0000*6A
$GPGSA,A,3,09,16,27,07,30,23,,,,,,,2.9,1.3,2.6*31
$GPRMC,170811.000,A,4028.4244,N,08353.5264,W,0.47,168.23,140615,,*15
$GPGGA,170812.000,4028.4243,N,08353.5264,W,2,06,1.3,305.8,M,-33.4,M,,0000*64
$GPGSA,A,3,09,16,27,07,30,23,,,,,,,2.9,1.3,2.6*31
$GPRMC,170812.000,A,4028.4243,N,08353.5264,W,0.59,172.29,140615,,*1F
$GPGGA,170813.000,4028.4242,N,08353.5264,W,2,06,1.3,305.6,M,-33.4,M,,0000*6A
$GPGSA,A,3,09,16,27,07,30,23,,,,,,,2.9,1.3,2.6*31
$GPRMC,170813.000,A,4028.4242,N,08353.5264,W,0.54,166.27,140615,,*19
$GPGGA,170814.000,4028.4241,N,08353.5264,W,2,06,1.3,305.3,M,-33.4,M,1.8,0000*4C
$GPGSA,A,3,09,16,27,07,30,23,,,,,,,2.9,1.3,2.6*31
$GPRMC,170814.000,A,4028.4241,N,08353.5264,W,0.56,166.74,140615,,*19
$GPGGA,170815.000,4028.4240,N,08353.5264,W,2,06,1.3,305.3,M,-33.4,M,2.8,0000*4F
$GPGSA,A,3,09,16,27,07,30,23,,,,,,,2.9,1.3,2.6*31
$GPGSV,3,1,12,19,59,146,28,27,58,074,38,09,55,238,37,07,47,311,37*72
$GPGSV,3,2,12,23,40,191,19,16,35,053,36,30,17,301,34,26,09,065,22*73
$GPGSV,3,3,12,11,08,170,,10,05,273,,04,02,152,,21,00,031,*77
$GPRMC,170815.000,A,4028.4240,N,08353.5264,W,0.13,127.38,140615,,*15
$GPGGA,170816.000,4028.4241,N,08353.5264,W,2,06,1.3,305.3,M,-33.4,M,3.8,0000*4C
$GPGSA,A,3,09,16,27,07,30,23,,,,,,,2.9,1.3,2.6*31
$GPRMC,170816.000,A,4028.4241,N,08353.5264,W,0.09,56.69,140615,,*2F
$GPGGA,170817.000,4028.4242,N,08353.5264,W,2,05,2.4,305.2,M,-33.4,M,0.8,0000*4B
$GPGSA,A,3,09,16,27,07,30,,,,,,,,4.2,2.4,3.5*3B
$GPRMC,170817.000,A,4028.4242,N,08353.5264,W,0.17,147.44,140615,,*1C
